Goober Reason,station_id,wrcc_id,period_record_start,period_record_stop,nesdis_id,station_name,state,county,latitude,longitude,elevation,station_status,class,agency,region,unit,transmit_time,tx_frequency,obs_frequency,site_description,goes,maintenance_standard,time_zone,avg_annual_precip
,520102,SAM1,3/13/2012,12/31/2022,32D663C8,TOA RIDGE,AS,,-14.26471,-170.68700,1270,Active,Permanent,NPS,PACIFIC WEST,NP OF AMERICAN SAMOA,23:40:00,60,60,,West,Yes,SST,223.75
,520103,SAM2,3/15/2012,12/31/2022,32D670BE,SIUFAGA RIDGE,AS,,-14.27614,-170.72186,480,Active,Permanent,NPS,PACIFIC WEST,NP OF AMERICAN SAMOA,23:50:00,60,60,,West,Yes,SST,223.75
,450312,WHUM,1/1/2005,12/31/2022,32465674,HUMPTULLIPS,WA,Grays Harbor,47.37776,-123.76116,2230,Active,Permanent,USFS,06,OLYMPIC NF,8:30:00,60,60,FIRE WX FORECAST ZONE: 652,West,Yes,PST,172.24
,450211,WOWW,1/1/2005,12/31/2022,300033C4,OWL MT,WA,Jefferson,47.76611,-123.96528,3398,Active,Permanent,S&PF,WASHINGTON,DEPT. OF NATURAL RES,0:40:00,60,60,,West,Yes,PST,157.89
,499911,HOAH,8/25/2006,12/31/2022,8379F6FA,OAHU FOREST NWR,HI,Honolulu,21.47747,-157.93694,1666,Active,Permanent,FWS,REGION 1,OAHU NWR,36:40:00,60,60,top of ridge.  helicopter access only.,West,Yes,HST,151.02
,350113,OTID,10/20/2010,12/31/2022,6000C770,TIDEWATER,OR,Clatsop,46.01147,-123.55628,2035,Active,Permanent,S&PF,OREGON,DEPT OF FORESTRY,14:40:00,60,60,,West,Yes,PST,142.8
,350215,OCED,1/1/2005,12/31/2022,3260D140,CEDAR,OR,Tillamook,45.21167,-123.77194,2220,Active,Permanent,USFS,06,SIUSLAW NF,10:50:00,60,60,"THE STATION IS ON A SPUR ROAD IN A 10 YEAR OLD DOUG-FIR
PLANTATION ON THE SOUTH SIDE OF MT. HEBO AT THE HEADWATERS
OF CEDAR CREEK.",West,Yes,PST,142.66
,40105,CSHI,1/1/2005,12/31/2022,328A366A,SHIP MTN,CA,Del Norte,41.72823,-123.79522,5151,Active,Permanent,USFS,05,SIX RIVERS NF,57:34:00,60,60,"Mountain top site. This station is located at the Ship Mtn Lookout site. It was moved from the old lookout site in 2008. Station receives strong coastal influence, including very high winds, fog, drizzle and precipitation. Moderate summer temps are received at this location.",West,Yes,PST,137.85
,451509,WFIN,1/1/2005,12/31/2022,3261B65C,FINNEY CREEK,WA,Skagit,48.39236,-121.81828,2160,Active,Permanent,USFS,06,MT. BAKER/SNOQUALMIE,28:30:00,60,60,FIRE WX FORECAST ZONE 658. Western WA FDOP.,West,Yes,PST,133.62
,501042,AHLM,1/1/2005,12/31/2022,3249009A,SHELTER COVE,AK,Ketchikan Gateway,55.52972,-131.36611,1650,Active,Permanent,USFS,10,TONGASS NF,55:10:00,60,60,"FIRE WX ZONE: 40
RIDGE SITE",West,Yes,AKST,130.22
,350604,OLOG,1/1/2005,12/31/2022,32403D8E,LOG CREEK,OR,Multnomah,45.49658,-121.89646,2800,Active,Permanent,USFS,06,MT. HOOD NF,6:50:00,60,60,FIRE WX FORECAST ZONE: 607,West,Yes,PST,123.53
,501044,AHAI,1/1/2005,12/31/2022,32471784,HAIDA,AK,Prince of Wales-Outer Ketchikan,55.33000,-132.66750,671,Active,Permanent,USFS,10,TONGASS NF,55:00:00,60,60,,West,Yes,AKST,121.92
,450911,WJEF,1/1/2005,12/31/2022,32463392,JEFFERSON CREEK,WA,Mason,47.54910,-123.21759,2408,Active,Permanent,USFS,06,OLYMPIC NF,36:20:00,60,60,FIRE WX FORECAST ZONE: 652,West,Yes,PST,121.61
,352915,OQUA,1/1/2005,12/31/2022,3245420C,QUAIL PRAIRIE LOOKOUT,OR,Curry,42.24222,-124.04528,3183,Active,Permanent,USFS,06,ROGUE RIVER/SISKIYOU,39:10:00,60,60,"FIRE WX ZONE: 619 This site is next to a fire lookout tower
site is approx. 100ft from it. This is a tower tpye RAWS.",West,Yes,PST,121.31
,350216,OSFK,1/1/2005,12/31/2022,6000F2EA,SOUTH FORK,OR,Tillamook,45.59528,-123.48361,2257,Active,Permanent,S&PF,OREGON,DEPT OF FORESTRY,12:30:00,60,60,,West,Yes,PST,120.31
,451613,WGOH,1/1/2005,12/31/2022,32407E84,GOLD HILL,WA,,48.24294,-121.54614,3350,Active,Permanent,USFS,06,MT. BAKER/SNOQUALMIE,28:40:00,60,60,FIRE WX FORECAST ZONE: 658. Western WA FDOP.,West,Yes,PST,119.88
,450321,WBLA,1/1/2005,12/31/2022,521483C4,BLACK KNOB,WA,Grays Harbor,47.41374,-124.10310,618,Active,Permanent,BIA,Northwest,Taholah Agency,31:10:00,60,60,,West,Yes,PST,118.58
,450130,WELL,1/1/2005,12/31/2022,300020B2,ELLIS MT,WA,Clallam,48.12944,-124.30528,2305,Active,Permanent,S&PF,WASHINGTON,DEPT. OF NATURAL RES,0:30:00,60,60,,West,Yes,PST,118.38
,450407,WHUC,1/1/2005,12/31/2022,30004554,HUCKLEBERRY RIDGE,WA,Pacific,46.50222,-123.38444,2425,Active,Permanent,S&PF,WASHINGTON,DEPT. OF NATURAL RES,11:20:00,60,60,,West,Yes,PST,115.87
,352922,OFLY,1/1/2005,12/31/2022,600074FE,FLYNN PRAIRIE,OR,Curry,42.39556,-124.37861,1543,Active,Permanent,S&PF,OREGON,DEPT OF FORESTRY,13:50:00,60,60,,West,Yes,PST,114.53
,450105,WFOR,5/23/2011,12/31/2022,AAAF336A,FORKS,WA,Clallam,47.95528,-124.38497,303,Active,Permanent,S&PF,WASHINGTON,DEPT. OF NATURAL RES,33:00:00,60,60,,West,Yes,PST,114.26
,451929,WTCR,7/28/2008,12/31/2022,30001528,THREE CORNER ROCK,WA,Skamania,45.72083,-122.03722,3450,Active,Permanent,S&PF,WASHINGTON,DEPT. OF NATURAL RES,0:00:00,60,60,,West,Yes,PST,114.05
,451921,WCAN,1/1/2005,12/31/2022,326190B0,CANYON CREEK,WA,,45.92944,-122.20278,2500,Active,Permanent,USFS,06,GIFFORD PINCHOT NF,52:50:00,60,60,,West,Yes,PST,113.67
,501040,ATHO,1/1/2005,12/31/2022,326F94D8,THORNE RIVER,AK,Prince of Wales-Outer Ketchikan,55.69674,-132.54030,505,Active,Permanent,USFS,10,TONGASS NF,54:50:00,60,60,,West,Yes,AKST,112.6
,451301,WLAR,1/1/2005,12/31/2022,3008B176,LARCH MT.,WA,Clark,45.72306,-122.34528,1150,Active,Permanent,S&PF,WASHINGTON,DEPT. OF NATURAL RES,9:20:00,60,60,,West,Yes,PST,110.91
,451415,WSUM,1/1/2005,12/31/2022,300063B8,SUMAS,WA,Whatcom,48.90774,-122.22338,3406,Active,Permanent,S&PF,WASHINGTON,DEPT. OF NATURAL RES,9:50:00,60,60,,West,Yes,PST,106.76
,40101,CCSX,1/1/2005,12/31/2022,333135A8,CAMP SIX,CA,Del Norte,41.83095,-123.87650,3698,Active,Permanent,USFS,05,SIX RIVERS NF,59:10:00,60,60,"Ridgetop station, located at old Camp Six Lookout site. In service on 07/13/2004. Station receives strong coastal influence, rain, fog, drizzle and high winds. Moderate summer temps are reached. Ground cover is brush and mixed conifer. Good NE wind station.",West,Yes,PST,105.44
,352920,OREM,1/1/2005,12/31/2022,324D16D6,RED MOUND,OR,Curry,42.12333,-124.30028,1753,Active,Permanent,BLM,R9 Columbia Pac NW,COOS BAY,21:50:00,60,60,"SITE SITS ON RIDGELINE AMIDST 3' - 4' MANZANITA BRUSH.
VIEW OF THE PACIFIC OCEAN IS 2 MILES DUE WEST.  MICROWAVE
TOWERS ARE 100 YDS. DUE SOUTH.",West,Yes,PST,104.94
,451924,WDRC,1/1/2005,12/31/2022,3286C772,DRY CRK,WA,Skamania,45.94361,-121.98750,2700,Active,Permanent,USFS,06,GIFFORD PINCHOT NF,25:40:00,60,60,,West,Yes,PST,103.8
Winter deactivation: last obs 8/21/24,501028,AZAR,1/1/2005,12/31/2022,32492676,ZAREMBO,AK,Wrangell-Petersburg,56.30000,-132.84861,900,Deactive,Permanent,USFS,10,TONGASS NF,55:20:00,60,60,"RIDGE TOP
FIRE WX FORECAST ZONE: 40",West,Yes,AKST,101.37
,40430,CSLC,1/23/2012,12/31/2022,3274B602,SLATE CREEK,CA,Humboldt,41.34176,-123.65997,4178,Active,Permanent,USFS,05,SIX RIVERS NF,57:24:00,60,60,"Ridge top station. Station is located near Slate Creek Butte, within the confluence of the Klamath River. Station installed 11/2010, activated 6/2011. Station receives low coastal influence, with moderate summer temps. Ground cover is brush and mixed conifer.",West,Yes,PST,100.99
,353114,OONI,1/1/2005,12/31/2022,3245517A,ONION MOUNTAIN LOOKOUT,OR,Josephine,42.45408,-123.61613,4429,Active,Permanent,USFS,06,ROGUE RIVER/SISKIYOU,45:40:00,60,60,"fire wx forecast zone 620  Located at the onion mountain
lookout.",West,Yes,PST,100.9
,494002,HPUA,2/27/2012,12/31/2022,32D6062E,PUU ALII,HI,Kalawao,21.14083,-156.90232,3805,Active,Permanent,NPS,PACIFIC WEST,KALAUPAPA NHP,22:40:00,60,60,,West,Yes,HST,100.75
,352813,OBKL,1/1/2005,12/31/2022,3245349C,BALD KNOB,OR,Coos,42.69361,-124.03944,3630,Active,Permanent,USFS,06,ROGUE RIVER/SISKIYOU,39:00:00,60,60,"FIRE WX FORECAST ZONE: 619
located  on the Powers Ranger dist. on the north side of th.
Bald Knob Lookout.",West,Yes,PST,100.51
,350726,OWAN,1/1/2005,12/31/2022,32407056,WANDERERS PEAK,OR,Clackamas,45.10919,-122.19641,4350,Active,Permanent,USFS,06,MT. HOOD NF,7:50:00,60,60,FIRE WX FORECAST ZONE: 607,West,Yes,PST,99.97
,352024,OYEL,1/1/2005,12/31/2022,3249E368,YELLOWSTONE MTN.,OR,Linn,44.59222,-122.42778,3080,Active,Permanent,BLM,R9 Columbia Pac NW,SALEM,17:30:00,60,60,"SITE SITS IN OLD BURN TURNED PLANTATION.  LOCATED AT 50 YDS
FROM TOP OF RIDGE WITH SNOWPEAK APPROX. 2 MILES NORTHWEST OF
SITE.  SURROUNDING AREA IS DOUGLAS FIR FORESTS.",West,Yes,PST,99.32
,450121,WTOM,1/1/2005,12/31/2022,3260A7D0,TOMS CREEK,WA,Clallam,48.02234,-123.95830,2400,Active,Permanent,USFS,06,OLYMPIC NF,25:50:00,60,60,FIRE WX FORECAST ZONE: 652,West,Yes,PST,98.53
,351710,ORCK,1/1/2005,12/31/2022,600113E2,ROCKHOUSE 1,OR,Polk,44.92500,-123.46944,1797,Active,Permanent,S&PF,OREGON,DEPT OF FORESTRY,12:50:00,60,60,,West,Yes,PST,98.12
,501013,AHON,1/1/2005,12/31/2022,32493500,HOONAH,AK,Skagway-Hoonah-Angoon,57.80825,-135.08892,450,Active,Permanent,USFS,10,TONGASS NF,55:40:00,60,60,"VALLEY
FIRE WX FORECAST ZONE 40",West,Yes,AKST,97.16
,40102,CGA2,5/30/2014,12/31/2022,3239C028,GASQUET 2,CA,Del Norte,41.83828,-123.94534,452,Active,Permanent,USFS,05,SIX RIVERS NF,50:30:00,60,60,"VALLEY , located at the Gasquet Ranger Station.  Station
converted to RAWS (was micro-raws) replacing manual station
10/27/99 - Station has had AC since this date. Station has
voice-",West,Yes,PST,96.8
,451721,WFTA,1/1/2005,12/31/2022,3260924A,FIRE TRNG. ACADEMY,WA,King,47.45678,-121.66517,1580,Active,Permanent,USFS,06,MT. BAKER/SNOQUALMIE,7:40:00,60,60,FIRE WX FORECAST ZONE 659N,West,Yes,PST,96.36
,451208,WELR,1/1/2005,12/31/2022,30005622,ELK ROCK,WA,Cowlitz,46.31222,-122.38556,2500,Active,Permanent,S&PF,WASHINGTON,DEPT. OF NATURAL RES,1:50:00,60,60,"Located in SW Washington state, Pacific Cascade DNR Region.",West,Yes,PST,96.07
,40425,CSHH,1/1/2005,12/31/2022,FA6371A8,SCHOOLHOUSE,CA,Humboldt,41.13844,-123.90679,2653,Active,Permanent,NPS,PACIFIC WEST,REDWOOD NAT'L. PARK,1:10:00,60,60,"Station is located in the Bald Hills region of Redwood NP.
Site is grassland near Oak stands and second growth conifer
Schoolhouse LO is 1.7 mi NE and 450 ft higher in elevation.",West,Yes,PST,94.4
,514801,PMAR,1/1/2005,12/31/2022,78A01308,MARICAO,PR,Maricao,18.16167,-67.02611,1618,Active,Permanent,USFS,08,NF'S IN PUERTO RICO,45:50:00,60,60,,East,Yes,AST,93.81
,451409,WKID,1/1/2005,12/31/2022,3261C0CC,KIDNEY CREEK,WA,,48.92022,-121.94264,3485,Active,Permanent,USFS,06,MT. BAKER/SNOQUALMIE,28:50:00,60,60,FIRE WX ZONE: 658,West,Yes,PST,90.96
,451611,WJOH,1/1/2005,12/31/2022,3261D3BA,JOHNSON RIDGE,WA,Snohomish,47.79992,-121.28600,2028,Active,Permanent,USFS,06,MT. BAKER/SNOQUALMIE,29:10:00,60,60,FIRE WX FORECAST ZONE 658,West,Yes,PST,89.35
,352545,OGOO,1/1/2005,12/31/2022,3260E4DA,GOODWIN PEAK,OR,Lane,43.92806,-123.89028,1800,Active,Permanent,USFS,06,SIUSLAW NF,1:30:00,60,60,FIRE WX FORECAST ZONE 612,West,Yes,PST,88.93
,350505,ORYE,1/1/2005,12/31/2022,324B73FE,RYE MOUNTAIN,OR,Yamhill,45.21731,-123.53578,2000,Active,Permanent,BLM,R9 Columbia Pac NW,SALEM,14:40:00,60,60,"STATION SITS IN BURNT OUT AREA WITH GRASS/STUMPS/LOGS.
FUR SEEDLINGS HAVE GROWN TO 20 TO 30 FEET TALL.
MUTANT FERNS GROW UPTO 7 FEET TALL, ALL AROUND STATION.",West,Yes,PST,88.54
,352554,OPEB,1/1/2005,12/31/2022,3262D4B4,PEBBLE,OR,Lane,44.23667,-121.99500,3450,Active,Permanent,USFS,06,WILLAMETTE NF,53:40:00,60,60,"FIRE WX FORECAST ZONE: 608
SITE SITS INSIDE PEBBLE TREE SEED ORCHARD",West,Yes,PST,88.29
,350727,OHOR,1/1/2005,12/31/2022,3249F01E,HORSE CREEK,OR,Clackamas,44.94081,-122.40081,3402,Active,Permanent,BLM,R9 Columbia Pac NW,SALEM,27:30:00,60,60,"STATION SITS MID-SLOPE IN GRASS/STUMPS/DEADFALL/AND
FUR SEEDLINGS FROM 2 TO 10 FEET TALL. HEAVY TIMBER IN ALL
DIRECTIONS FROM 1/2 TO 4 MILES AWAY.",West,Yes,PST,87.85
,353044,OBRR,5/10/2005,12/31/2022,3263432C,BURNT RIDGE,OR,Coos,43.20278,-123.71750,2955,Active,Permanent,BLM,R9 Columbia Pac NW,COOS BAY,35:00:00,60,60,"STATION LOCATED ON CLEARED OFF MTN TOP.
SURROUNDING AREA IS MOSTLY LOWER MOUNTAINS AND
VALLEYS. MOSTLY CONIFER FOREST AND GROUND FOLIAGE
(COASTAL FERNS AND GRASSES), TREE HEIGHTS 30-50 FEET.",West,Yes,PST,86.88
,352552,OTRO,1/1/2005,12/31/2022,324A0794,TROUT CREEK,OR,Lane,44.11114,-122.57725,2268,Active,Permanent,BLM,R9 Columbia Pac NW,EUGENE,14:30:00,60,60,"STATION LOCATED ON SOUTH FACING SLOPE, 20 YDS ABOVE LOGGING
ROAD.  SITE SITS AMONG 30+ FOOT FIR TREES IN A PLANTATION.
RIDGE RUNS NORTH BEHIND SITE.
SHADOWING FROM THE NORTH DUE TO TREES AND RIDGE.  ACTIVE
LOGGING TO ALL POINTS AROUND SITE.",West,Yes,PST,86.07
,350208,OTIL,1/1/2005,12/31/2022,60010094,TILLAMOOK,OR,Tillamook,45.45722,-123.80250,11,Active,Permanent,S&PF,OREGON,DEPT OF FORESTRY,12:40:00,60,60,,West,Yes,PST,85.88
,450306,WMIN,1/1/2005,12/31/2022,3000C340,MINOT PEAK,WA,Grays Harbor,46.89222,-123.41694,1768,Active,Permanent,S&PF,WASHINGTON,DEPT. OF NATURAL RES,0:10:00,60,60,,West,Yes,PST,85.2
,451209,WABE,1/1/2005,12/31/2022,3000B5D0,ABERNATHY MTN.,WA,Cowlitz,46.34278,-123.08333,2000,Active,Permanent,S&PF,WASHINGTON,DEPT. OF NATURAL RES,1:40:00,60,60,,West,Yes,PST,84.9
,353046,OCHR,1/1/2005,12/31/2022,60001118,CHARLOTTE RIDGE,OR,Douglas,43.67006,-123.94217,1220,Active,Permanent,S&PF,OREGON,DEPT OF FORESTRY,8:20:00,60,60,Ridgetop site.,West,Yes,PST,84.69
,352919,OCAL,1/1/2005,12/31/2022,32678308,CALVERT PEAK,OR,Curry,42.77908,-123.73464,3822,Active,Permanent,BLM,R9 Columbia Pac NW,MEDFORD,41:10:00,60,60,"STATION SITS ON TOP OF CALVERT PEAK ON THE NW SIDE OF PAVED
RUNWAY.  THE AREA SURROUNDING THE SITE ARE FORESTED MTNS.
AND VALLEYS.",West,Yes,PST,84.62
,351604,OCAN,1/1/2005,12/31/2022,3260C236,CANNIBAL MOUNTAIN,OR,Lincoln,44.34889,-123.88667,1939,Active,Permanent,USFS,06,SIUSLAW NF,3:00:00,60,60,"LOCATED ON TOP OF CANNIBAL MTN. IN AN AREA THAT WAS CLEARED
IN 1985. THIS SITE HAS WEATHER INFO BACK TO 1964. CANNIBAL
WAS USED BACK IN THE 1930'S TO THE EARLY 70'S AS A FIRE
LOOKOUT. THIS STATION REPRESENTS THE MAJORITY OF THE SIUSLAW
NATIONAL FOREST FOR FIRE DANGER RATINGS.",West,Yes,PST,84.48
,41304,CSDD,1/1/2005,12/31/2022,3274606A,SADDLEBACK,CA,Sierra,39.63614,-120.86399,6670,Active,Permanent,USFS,05,TAHOE NF,18:00:00,60,60,"RIDGETOP ADJACENT TO SADDLEBACK LOOKOUT. EXPOSED SITE WITH
PANARAMIC VIEW FROM ALL CARDINAL POINTS.",West,Yes,PST,84.08
,451105,WKOS,1/1/2005,12/31/2022,3000D036,KOSMOS,WA,Lewis,46.52389,-122.19000,2100,Active,Permanent,S&PF,WASHINGTON,DEPT. OF NATURAL RES,11:10:00,60,60,,West,Yes,PST,83.82
,352816,OSIG,1/1/2005,12/31/2022,324FB3DA,SIGNAL TREE,OR,Coos,43.00167,-123.77861,3294,Active,Permanent,BLM,R9 Columbia Pac NW,COOS BAY,35:10:00,60,60,"THIS STATION IS LOCATED ON TOP OF A FLAT MOUNTIAN
PEAK NEAR THE SOUTH EDGE. THERE ARE THREE BUILDINGS
AND TWO TOWERS WITH MICROWAVE ANTENNA DISHES.",West,Yes,PST,83.09
,40404,CBMT,12/31/2005,12/31/2022,3266210A,BRUSH MOUNTAIN,CA,Humboldt,40.91393,-123.66878,3941,Active,Permanent,USFS,05,SIX RIVERS NF,46:40:00,60,60,"Mountain top station located within the Trinity River drainage. Strong coastal influence including fog, drizzle, high winds and precipitation. Receives moderate summer temperatures.",West,Yes,PST,81.65
,90701,GBRA,1/1/2005,12/31/2022,327357C4,BRASSTOWN,GA,Towns,34.80574,-83.71261,3280,Active,Permanent,USFS,08,CHATTAHOOCHEE&OCONEE,6:00:00,60,60,,West,Yes,EST,81.3
,451504,WMRB,1/1/2005,12/31/2022,FA64739C,MARBLEMOUNT,WA,Skagit,48.53944,-121.44611,357,Active,Permanent,NPS,PACIFIC WEST,NORTH CASCADES NP,12:10:00,60,60,,West,Yes,PST,80.23
,498011,HMLK,1/1/2005,12/31/2022,487016AC,MOLOKAI 1,HI,Maui,21.11500,-156.94750,2733,Active,Permanent,S&PF,HAWAII,DEPT OF LAND AND NR,37:22:00,60,60,"STATION IS TEMPORAY AT CURRENT LOCATION
STATION IS ON TOP OF A RIDGE IN AN OPENING SUROUNDED BY
LARGE EVERGREEN TREES AND HEAVY VEGITAION. THERE IS A STEEP
CANYON DIRECTLY TO THE EAST AND THE ROAD IS TO THE NORTHWEST",West,Yes,HST,80.12
,496009,HPAL,1/1/2005,12/31/2022,FA900222,PALI2,HI,Hawaii,19.31750,-155.29222,2808,Active,Permanent,NPS,PACIFIC WEST,HAWAII VOLCANOES NP,1:30:00,60,60,"SITE SITS TWO MILES INLAND FROM THE OCEAN. 150 FT. OFF
PARK ROAD. PARK SERVICE PERSONNEL HAVE TO ESCORT YOU TO
STATION.",West,Yes,HST,79.93
,496035,HNEN,2/21/2012,12/31/2022,32D64524,NENE CABIN CS,HI,Hawaii,19.25639,-155.61444,6581,Active,Permanent,NPS,PACIFIC WEST,HAWAII VOLCANOES NP,23:20:00,60,60,,West,Yes,HST,79.63
,315803,NHIG,1/1/2005,12/31/2022,333667E0,HIGHLANDS,NC,Macon,35.08611,-83.21750,3915,Active,Permanent,USFS,08,NF'S IN N. CAROLINA,17:25:00,60,60,,East,Yes,EST,79.18
,351909,OBOU,1/1/2005,12/31/2022,3236E056,BOULDER CREEK,OR,Marion,44.72194,-122.00306,3570,Active,Permanent,USFS,06,WILLAMETTE NF,58:40:00,60,60,FIRE WEATHER FORECAST ZONE: 608,West,Yes,PST,78.84
,40635,COAM,1/1/2005,12/31/2022,323AD450,OAK MOUNTAIN,CA,Shasta,41.00633,-121.98443,2646,Active,Permanent,USFS,05,SHASTA TRINITY NF,26:50:00,60,60,"VALLEY SITE. STATION SITS ON THE UPPER 1/3 OF THE SLOPE,
APPROX 50-60 YDS WEST OF THE MAIN ROAD.",West,Yes,PST,78.2
,150105,HHAK,1/1/2005,12/31/2022,8374D370,HAKALAU,HI,Hawaii,19.82094,-155.33300,6549,Active,Permanent,FWS,REGION 1,HAKALAU NWR,45:00:00,60,60,,West,Yes,HST,77.75
,520100,AMME,2/25/2014,12/31/2022,32D633B4,AMME CS,MP,,15.21778,145.71772,25,Active,Permanent,NPS,PACIFIC WEST,AMERICAN MP,23:10:00,60,60,,West,Yes,ChST,77.59
,352546,OSUG,1/1/2005,12/31/2022,323653D8,SUGARLOAF,OR,Lane,43.66361,-122.62917,4328,Active,Permanent,USFS,06,UMPQUA NF,6:40:00,60,60,"STATION SITS ON THE SOUTH FACING SLOPE OF A MTN. ABRUPT EDGE
ON SOUTH OF RAWS. MIXED CONIFER",West,Yes,PST,77.55
,40428,CWSS,1/1/2005,12/31/2022,FA657166,WESTSIDE,CA,Humboldt,41.22313,-124.05498,1287,Active,Permanent,NPS,PACIFIC WEST,REDWOOD NAT'L. PARK,43:40:00,60,60,,West,Yes,PST,76.72
,316102,NGUI,1/1/2005,12/31/2022,323E62E4,GUION FARM,NC,Henderson,35.21280,-82.58970,2701,Active,Permanent,S&PF,NORTH CAROLINA,DIV. OF FOREST RES.,10:00:00,60,60,,West,Yes,EST,76.14
,352819,OLON,1/1/2005,12/31/2022,60006788,LONG PRAIRIE,OR,Coos,42.95333,-124.22333,1093,Active,Permanent,S&PF,OREGON,DEPT OF FORESTRY,13:40:00,60,60,"Ridgetop, cow pasture, mixed conifer surround",West,Yes,PST,75.12
,316001,NDAV,1/1/2005,12/31/2022,3335167E,DAVIDSON RIVER,NC,,35.34875,-82.77542,3355,Active,Permanent,USFS,08,NF'S IN N. CAROLINA,35:35:00,60,60,,East,Yes,EST,74.88
Winter deactivation: last obs 8/22/24,501026,AKAK,1/1/2005,12/31/2022,324913EC,KAKE,AK,Wrangell-Petersburg,56.97389,-133.66000,400,Deactive,Permanent,USFS,10,TONGASS NF,55:30:00,60,60,Flat Muskeg,West,Yes,AKST,74.75
,451115,WHAG,1/1/2005,12/31/2022,32617342,HAGER CREEK,WA,,46.56444,-121.62778,3600,Active,Permanent,USFS,06,GIFFORD PINCHOT NF,53:30:00,60,60,FIRE WX ZONE: 659,West,Yes,PST,74.15
,451119,WOHA,1/1/2005,12/31/2022,FA65211A,OHANAPECOSH,WA,,46.73111,-121.57111,1950,Active,Permanent,NPS,PACIFIC WEST,MT. RAINIER NP,41:40:00,60,60,,West,Yes,PST,73.97
,352916,OAGN,1/1/2005,12/31/2022,326202DC,AGNESS2,OR,Curry,42.55222,-124.05778,247,Active,Permanent,USFS,06,ROGUE RIVER/SISKIYOU,39:20:00,60,60,FIRE WX FORECAST ZONE: 620,West,Yes,PST,73.39
,90802,GTAL,1/1/2005,12/31/2022,327381AC,TALLULAH,GA,Rabun,34.90583,-83.33444,2728,Active,Permanent,USFS,08,CHATTAHOOCHEE&OCONEE,16:35:00,60,60,Electric fence surrounds station in open grass field.,East,Yes,EST,73.16
last obs 2023-10-25T15:00-08:00,450124,WHUR,1/1/2005,12/31/2022,3280A25A,HURRICANE,WA,Clallam,47.97038,-123.49870,5262,Deactive,Permanent,NPS,PACIFIC WEST,OLYMPIC NP,28:20:00,60,60,"Station is located on a E/W ridgetop between the Elwha River
and the northern foothills of the Olympics.  The DCP is
housed in a radio repeater building, and instrument towers
adjoin the building.  Building and towers are located in a
small opening in clumps of subalpine fir trees.",West,Yes,PST,72.74
,41901,CDUN,1/1/2005,12/31/2022,3274731C,DUNCAN,CA,Placer,39.14356,-120.50939,7182,Active,Permanent,USFS,05,TAHOE NF,18:10:00,60,60,Located at Duncan Peak Lookout.,West,Yes,PST,72.3
,40427,CYUR,1/1/2005,12/31/2022,15C19352,NOTCHKO,CA,Humboldt,41.28972,-123.85750,477,Active,Permanent,BIA,Pacific,North. Calif. Agency,45:00:00,60,60,,West,Yes,PST,72.24
,451809,WASH,12/31/2005,12/31/2022,FA6184D8,ASHFORD,WA,Pierce,46.75522,-122.10975,1421,Active,Permanent,S&PF,WASHINGTON,DEPT. OF NATURAL RES,10:00:00,60,60,"Site located in maintained school yard.  Perimiter trees approximately 200' away to the North, East and West, and 400' to the south.",West,Yes,PST,71.72
,350308,OMLL,1/1/2005,12/31/2022,6000E19C,MILLER,OR,Columbia,46.02250,-123.27167,1031,Active,Permanent,S&PF,OREGON,DEPT OF FORESTRY,12:20:00,60,60,,West,Yes,PST,71.62
,351811,OWIL,1/1/2005,12/31/2022,324AD1FC,WILKINSON RIDGE,OR,Benton,44.33247,-123.71797,1346,Active,Permanent,S&PF,OREGON,DEPT OF FORESTRY,57:14:00,60,60,"STATION SITUATED ON SMALL FINGER RIDGE OVERLOOKING
THE MISSOURI BEND RECREATION SITE ON THE ALSEA RIVER.
IMMEDIATE AREA IS REASONABLY NEW PLANTATION.
RIDGE RUNS EAST TO WEST OLD BURN MANY STUMPS, SLASH,
MIXED FERNS VINES AND GRASSES.",West,Yes,PST,71.09
,499908,HSCH,1/1/2005,12/31/2022,325AB384,SCHOFIELD EAST,HI,Honolulu,21.49944,-157.99333,1250,Active,Permanent,DOD,NOT APPLICABLE,SCHOFIELD BARRACKS,58:30:00,60,60,"SITE IS LOCATED .1 MILES SOUTH OF CENTER LINE ROAD AT
SCHOFIELD EAST TRAINING RANGE. DROP ZONE STARTS 100 YDS N.
RAVINE 25' SOUTH RUNNING NE-SW.
SITS IN OPEN AREA W/TREES 100YDS BOTH EAST AND WEST.",West,Yes,HST,70.95
,352553,OBRU,1/1/2005,12/31/2022,324A2178,BRUSH CREEK,OR,Lane,44.28428,-122.84942,2130,Active,Permanent,BLM,R9 Columbia Pac NW,EUGENE,14:40:00,60,60,"STATION LOCATED ON KNOB AT END OF ROAD. (TURNAROUND)
FRESH CLEAR CUT SOUTH OF STATION & DOWN HILL @ 1/2 MI.
HIGH TENSION LINES EAST OF STATION 2 1/2 - 3 MI.",West,Yes,PST,70.92
,41018,CMEN,1/1/2005,12/31/2022,32715230,MENDOCINO PASS,CA,Mendocino,39.80742,-122.94511,5382,Active,Permanent,USFS,05,MENDOCINO NF,4:30:00,60,60,"SITE IS JUST NORTH OF MENDOCINO PASS. AREA IS IN A SMALL
CLEARING WITH THE MAST JUST ABOVE THE TREES.  STATION SITS
ON A SOUTH SLOPE 50 YDS OF 2 TRACK.",West,Yes,PST,70.08
,451919,WORR,1/1/2005,12/31/2022,326C56C8,ORR CREEK,WA,Skamania,46.35389,-121.60417,3000,Active,Permanent,USFS,06,GIFFORD PINCHOT NF,9:20:00,60,60,FIRE WX FORECAST ZONE: 659,West,Yes,PST,69.5
,228202,MSAN,1/1/2005,12/31/2022,83770216,MS SANDHILL CRANE - FTS,MS,Jackson,30.45278,-88.66167,25,Active,Permanent,FWS,REGION 4,SANDHILL CRANE NWR,51:10:00,60,60,,West,Yes,CST,69.4
,40618,CSIM,1/1/2005,12/31/2022,323AE1CA,SIMS,CA,Shasta,41.07130,-122.36993,2537,Active,Permanent,USFS,05,SHASTA TRINITY NF,32:10:00,60,60,"MIDSLOPE
20' WS, LUNAR TOWER, VOICE SYNTH",West,Yes,PST,68.66
,352820,OSMC,1/1/2005,12/31/2022,60005212,SEVEN MILE CREEK,OR,Coos,43.21000,-124.31750,438,Active,Permanent,S&PF,OREGON,DEPT OF FORESTRY,13:30:00,60,60,,West,Yes,PST,68.53
,90601,GTOC,1/1/2005,12/31/2022,327344B2,TOCCOA,GA,Union,34.76500,-84.07444,2415,Active,Permanent,USFS,08,CHATTAHOOCHEE&OCONEE,5:50:00,60,60,,West,Yes,EST,68.46
,228204,MGRB,1/1/2005,12/31/2022,32908328,GRAND BAY,MS,Jackson,30.43833,-88.42556,7,Active,Permanent,FWS,REGION 4,GRAND BAY NWR,50:05:00,60,60,,East,Yes,CST,68.44
,496006,HKMO,1/1/2005,12/31/2022,FA4447E8,MAUNA LOA,HI,Hawaii,19.47361,-155.35889,5520,Active,Permanent,NPS,PACIFIC WEST,HAWAII VOLCANOES NP,34:50:00,60,60,"SYSTEM IS LOCATED IN HAWAII VOLCANO N.P. SITE HAS SOUTHERLY
EXPOSURE IN TALL GRASS AND TREES.  THESE TREES ARE LOCATED
IN ALL DIRECTIONS AND VARY IN HEIGHT FROM 8 TO 25 FEET.
FAX # (808) 985-6023",West,Yes,HST,68.39
,228103,MCPK,12/31/2005,12/31/2022,323930AC,CAMP KELLER,MS,Harrison,30.52423,-88.98203,130,Active,Permanent,USFS,08,NF'S IN MISSISSIPPI,0:20:00,60,60,,East,Yes,CST,68.16
,228002,MHCK,1/1/2005,12/31/2022,391010D6,HANCOCK,MS,Hancock,30.45111,-89.45444,98,Active,Permanent,S&PF,MISSISSIPPI,FORESTRY COMMISSION,9:20:00,60,60,,West,Yes,CST,67.26
Moving to different location,91201,GCAM,1/1/2005,12/31/2022,327314CE,CAMP MERRILL,GA,Lumpkin,34.60866,-84.13086,2021,Deactive,Permanent,USFS,08,CHATTAHOOCHEE&OCONEE,5:00:00,60,60,,West,Yes,EST,67.25
,40918,CHBG,7/24/2012,12/31/2022,324D90C2,HUMBUG SUMMIT,CA,Plumas,40.10952,-121.38270,6714,Active,Permanent,USFS,05,LASSEN NF,21:10:00,60,60,,West,Yes,PST,66.99
,100107,ISAD,1/1/2005,12/31/2022,3249657C,SADDLE PASS,ID,Boundary,48.93855,-116.73451,5120,Active,Permanent,USFS,01,IDAHO PANHANDLE NF,7:50:00,60,60,"MIDSLOPE
FIRE WX FORECAST ZONE:  101",West,Yes,PST,66.71
"Maintenance Standard=NO, Research Stn",16302,ASRS,1/26/2017,12/31/2022,32B17E6A,SRS,AL,Escambia,31.01111,-87.05556,170,Deactive,Permanent,USFS,08,SOUTHERN RSRCH STN,13:50:00,60,60,,West,No,CST,66.7
,380201,STAB,11/16/2018,12/31/2022,32B745EC,TABLE ROCK,SC,Pickens,35.02912,-82.69328,1243,Active,Permanent,S&PF,SOUTH CAROLINA,FORESTRY COMMISSION,17:30:00,60,60,,East,Yes,EST,66.64
,80202,FNAV,1/1/2005,12/31/2022,FA64E6FE,NAVAL LIVE OAKS,FL,,30.36639,-87.13750,15,Active,Permanent,NPS,SOUTHEAST,GULF ISLANDS N.SEASH,22:50:00,60,60,,West,Yes,CST,66.55
,350718,OREB,1/1/2005,12/31/2022,3240335C,RED BOX,OR,Clackamas,45.02750,-121.92111,3250,Active,Permanent,USFS,06,MT. HOOD NF,7:20:00,60,60,FIRE WX FORECAST ZONE: 607,West,Yes,PST,66.54
,407502,TCOK,1/1/2005,12/31/2022,3244E00E,TELLICO,TN,Monroe,35.38142,-84.12292,1920,Active,Permanent,USFS,08,CHEROKEE NF,19:00:00,60,60,,East,Yes,EST,66.48
,227802,MBLC,1/1/2005,12/31/2022,333305C6,BLACK CREEK,MS,Stone,30.84889,-89.03417,275,Active,Permanent,USFS,08,NF'S IN MISSISSIPPI,0:40:00,60,60,"Flat, located  at MFC, STONE TOWER.",East,Yes,CST,65.91
,353031,OCIN,1/1/2005,12/31/2022,3237F1DA,CINNAMON,OR,Douglas,43.32083,-122.10667,4834,Active,Permanent,USFS,06,UMPQUA NF,32:40:00,60,60,"STATION IS LOCATED ON TOP OF A KNOLL WITH MIXED CONIFERS.
TREES ARE APPROX 15' TO 20' TALL.",West,Yes,PST,65.71
,451705,WLES,1/1/2005,12/31/2022,3261E620,LESTER,WA,King,47.21000,-121.48972,1637,Active,Permanent,USFS,06,MT. BAKER/SNOQUALMIE,29:00:00,60,60,FIRE WX ZONE: 659N,West,Yes,PST,65.51
,352558,OEMI,1/1/2005,12/31/2022,3262E12E,EMIGRANT,OR,Lane,43.48306,-122.23028,3840,Active,Permanent,USFS,06,WILLAMETTE NF,53:30:00,60,60,"FIRE WX FORECAST ZONE: 608
SITE SITS ON EAST/WEST SPUR RIDGE OVERLOOKING MIDDLE FORK
OF WILLAMETTE RIVER",West,Yes,PST,65.19
,40429,CKNE,1/1/2005,12/31/2022,CA2AB768,KNEELAND,CA,Humboldt,40.71994,-123.92829,2737,Active,Permanent,S&PF,CALIFORNIA,CDF,55:35:00,60,60,"FDRA - 100, Site is on ridgetop at the Kneeland Helitack Base
surrounded by a hardwood/conifer component.",West,Yes,PST,64.8
,313902,TCHE,1/1/2005,12/31/2022,FA418536,CHEROKEE,NC,,35.61978,-83.20711,3400,Active,Permanent,NPS,SOUTHEAST,GREAT SMOKEY MTNS NP,57:40:00,60,60,,West,Yes,EST,64.79
,168541,LBBR,1/1/2005,12/31/2022,83771160,BIG BRANCH NWR,LA,St. Tammany,30.32167,-89.93528,11,Active,Permanent,FWS,REGION 4,BIG BRANCH NWR,47:30:00,60,60,"located in an old baseball field at the SELA HQ's.s
Short grass near helibase.  Exit Lacombe@ I-12 & go south on Hwy 434.
visitor center entrance on the right, turn in & follow road, station in the back field behind HQ",West,Yes,CST,64.76
,227701,MBOG,9/2/2015,12/31/2022,32B108FA,BOGUE CHITTO,MS,Pearl River,30.66194,-89.79556,126,Active,Permanent,FWS,REGION 4,BIG BRANCH NWR,12:40:00,60,60,,West,Yes,CST,64.41
,227001,MPKE,1/1/2005,12/31/2022,391040AA,PIKE,MS,Pike,31.18694,-90.47806,366,Active,Permanent,S&PF,MISSISSIPPI,FORESTRY COMMISSION,9:40:00,60,60,,West,Yes,CST,64.33
,16703,ABNS,1/1/2005,12/31/2022,837970EE,BONSECOUR,AL,Baldwin,30.25278,-87.81250,20,Active,Permanent,FWS,REGION 4,SANDHILL CRANE NWR,50:15:00,60,60,,East,Yes,CST,64.28
,40106,CCRZ,1/1/2005,12/31/2022,3267B692,CRAZY PEAK,CA,Del Norte,41.97639,-123.61222,3970,Active,Permanent,USFS,06,ROGUE RIVER/SISKIYOU,38:50:00,60,60,"FIRE WX FORECAST ZONE: 621
Is set up as a Lunar Lander Tower,10/04/05",West,Yes,PST,64.2
,380102,SANP,1/1/2005,12/31/2022,3333305C,ANDREW PICKENS,SC,Oconee,34.80847,-83.12761,1669,Active,Permanent,USFS,08,FRANCIS MARION&SUMTR,30:35:00,60,60,"Station is located on ridgetop at the Andrew Pickens R.D.
administrative site.",East,Yes,EST,64.05
,40629,CWHS,6/10/2010,12/31/2022,FA410322,WHISKEYTOWN HQ#2,CA,Shasta,40.61051,-122.52731,1360,Active,Permanent,NPS,PACIFIC WEST,WHISKEYTOWN NRA,0:40:00,60,60,,West,Yes,PST,64.03
,40801,CCMT,6/8/2015,12/31/2022,AAB5D654,COLBY MOUNTAIN,CA,Tehama,40.14564,-121.52250,6004,Active,Permanent,USFS,05,LASSEN NF,27:20:00,60,60,Located at the Colby Mtn Lookout.  Replaced a manual fire weather station in June 2015.  Active in WIMS February 2016.,West,Yes,PST,63.9
,353047,ODEV,1/1/2005,12/31/2022,326B226C,DEVILS GRAVEYARD,OR,Douglas,43.72008,-123.62958,1550,Active,Permanent,BLM,R9 Columbia Pac NW,COOS BAY,24:20:00,60,60,"STATION SITS ON A RIDGELINE IN 3 ACRE CLEAR CUT ON
DEVILS GRAVEYARD RD. ROMAN NOSE PEAK APPROX 15
MILES NORTH, OLD BLUE LOOKOUT 30 MILES SOUTH.",West,Yes,PST,63.76
,41806,CWHC,1/1/2005,12/31/2022,324950E6,WHITE CLOUD,CA,Nevada,39.31944,-120.84211,4302,Active,Permanent,USFS,05,TAHOE NF,33:30:00,60,60,"RIDGETOP SITE LOCATED AT HELIBASE AT WHITE CLOUD STATION.
FULL EXPOSURES TO THE WEST, SOUTH AND NORTH.",West,Yes,PST,63.44
,353115,OILL,1/1/2005,12/31/2022,324564E0,ILLINOIS VALLEY AIRPORT,OR,Josephine,42.10375,-123.68508,1389,Active,Permanent,BLM,R9 Columbia Pac NW,MEDFORD,52:00:00,60,60,"FIRE WX FORECAST ZONE: 620
SITE SITS 200 YDS WEST OF N-S RUNWAY. OLD BUNKER 50' TO THE
S-SE OF STATION.",West,Yes,PST,63.43
,496034,HLKA,2/22/2012,12/31/2022,32D620C2,LOWER KAHUKU CS,HI,Hawaii,19.10075,-155.66961,3129,Active,Permanent,NPS,PACIFIC WEST,HAWAII VOLCANOES NP,23:00:00,60,60,,West,Yes,HST,63.3
,42614,CKYB,1/1/2005,12/31/2022,327490EE,ROBBS,CA,El Dorado,38.92367,-120.40412,5653,Active,Permanent,USFS,05,ELDORADO NF,23:40:00,60,60,Near the Robbs Hut Lookout on the Pacific District (6500'+ elevation).  Located on the ridgeline south & downslope from the lookout in short shrubs with rocky soils & open areas.,West,Yes,PST,63.24
,351814,OGEL,5/14/2014,12/31/2022,6000026E,GELLATLY,OR,Benton,44.60778,-123.47500,860,Active,Permanent,S&PF,OREGON,DEPT OF FORESTRY,8:30:00,60,60,,West,Yes,PST,63.22
,407603,TIND,1/1/2005,12/31/2022,FA419640,INDIAN GRAVE,TN,,35.62392,-83.81431,2700,Active,Permanent,NPS,SOUTHEAST,GREAT SMOKEY MTNS NP,55:10:00,60,60,,East,Yes,EST,63.03
,227601,MGRE,1/1/2005,12/31/2022,391085B4,GREENE,MS,Greene,31.13694,-88.59972,156,Active,Permanent,S&PF,MISSISSIPPI,FORESTRY COMMISSION,14:00:00,60,60,,West,Yes,CST,63.02
,227202,MMAR,1/1/2005,12/31/2022,391003A0,MARION,MS,Marion,31.21139,-89.92250,380,Active,Permanent,S&PF,MISSISSIPPI,FORESTRY COMMISSION,9:10:00,60,60,,West,Yes,CST,62.97
,226102,MBUD,1/1/2005,12/31/2022,3332A7C4,BUDE,MS,Franklin,31.41056,-90.84667,447,Active,Permanent,USFS,08,NF'S IN MISSISSIPPI,5:30:00,60,60,,West,Yes,CST,62.94
,42611,COWE,1/1/2005,12/31/2022,32399054,OWENS CAMP,CA,El Dorado,38.73582,-120.24158,5240,Active,Permanent,USFS,05,ELDORADO NF,2:00:00,60,60,"MIDSLOPE. Owens Camp Station heliport.

Site burned over by the King Fire, September 2014.",West,Yes,PST,62.86
,43612,CWWO,1/1/2005,12/31/2022,FA454512,WWOLF,CA,Tuolumne,37.85942,-119.65167,8038,Active,Permanent,NPS,PACIFIC WEST,YOSEMITE NP,53:00:00,60,60,"SITE IS LOCATED IN MODERATELY TIMBERED AREA.  TIMBER HEIGHT
RANGES FROM 10 TO 70'. LOTS OF GRASSES WITH SMALL TO LARGE
SIZE ROCKS TRHOUGHOUT AREA.",West,Yes,PST,62.75
,409201,TPRE,1/1/2005,12/31/2022,02606490,PRENTICE COOPER SF,TN,Marion,35.13028,-85.42778,1920,Active,Permanent,S&PF,TENNESSEE,DIVISION OF FORESTRY,6:10:00,60,60,,West,Yes,EST,62.52
,16301,ADIX,2/10/2016,12/31/2022,32B26A12,DIXON,AL,Escambia,31.16181,-86.70325,321,Active,Permanent,USFS,08,NF'S IN ALABAMA,37:35:00,60,60,,East,Yes,CST,62.22
,313402,NBUS,1/1/2005,12/31/2022,326D22A2,BUSICK,NC,Yancey,35.74479,-82.21500,3058,Active,Permanent,USFS,08,NF'S IN N. CAROLINA,17:15:00,60,60,"this wx station is located at a FS work center in a meadow
a building sets 80 feet west of the station.",East,Yes,EST,62.1
,15902,AOPE,1/1/2005,12/31/2022,327E82CA,OPNPND,AL,Covington,31.09444,-86.54861,275,Active,Permanent,USFS,08,NF'S IN ALABAMA,46:50:00,60,60,FIRE WX ZONE: 815,East,Yes,CST,61.98
,91301,GCHA,1/1/2005,12/31/2022,32737128,CHATTOOGA,GA,Habersham,34.64028,-83.52194,1500,Active,Permanent,USFS,08,CHATTAHOOCHEE&OCONEE,6:30:00,60,60,,West,Yes,EST,61.79
,319602,NCRN,1/1/2005,12/31/2022,3334E400,CROATAN,NC,Carteret,34.76056,-76.89556,69,Active,Permanent,USFS,08,NF'S IN N. CAROLINA,48:35:00,60,60,"Located on the North Carolina Coast
Mike says you can't see the ocean from there but almost.",East,Yes,EST,61.74
,227401,MRAG,1/23/2012,12/31/2022,328BE2F8,RAGLAND HILLS,MS,Forrest,31.20420,-89.17833,285,Active,Permanent,USFS,08,NF'S IN MISSISSIPPI,0:30:00,60,60,,East,Yes,CST,61.7
,40508,CRUT,1/1/2005,12/31/2022,3285F5E6,RUTH,CA,Trinity,40.25074,-123.31980,2732,Active,Permanent,USFS,05,SIX RIVERS NF,23:00:00,60,60,"Valley station located near the Ruth Forest Service Station. Ground cover consists of grass, manzanita, pine and fir.",West,Yes,PST,61.61
,40402,CBIH,1/1/2005,12/31/2022,5212E6EC,BIG HILL,CA,Humboldt,41.09747,-123.63589,3570,Active,Permanent,BIA,Pacific,Hoopa Valley Tribe,40:50:00,60,60,"STATION SITS ON TOP OF ROUND, OPEN LOOKOUT SITE (BIG HILL),
DROPS AWAY AT 45 DEGREES ON ALL SIDES. LOOKOUT BUILDING IS
100 FEET TO NORTH, SMALL ROAD (FIRE BREAK) RUNS AROUND HILL
TOP FOR 360 DEGREES, LARGE OPEN VALLEYS ON S, W AND E SIDES.",West,Yes,PST,61.52
,226702,MWAU,1/1/2005,12/31/2022,328316DA,WAUSAU,MS,Wayne,31.53035,-88.89237,316,Active,Permanent,USFS,08,NF'S IN MISSISSIPPI,36:05:00,60,60,Ridge Top.,East,Yes,CST,61.47
,431303,VWOO,7/31/2013,12/31/2022,3335A5F0,WOODFORD STATE PARK,VT,Bennington,42.89142,-73.03930,2317,Active,Permanent,USFS,09,GRN MTN & FINGER LKS,31:25:00,60,60,,East,Yes,EST,61.42
,41019,CLAY,1/1/2005,12/31/2022,CA2BC302,LAYTONVILLE,CA,Mendocino,39.70233,-123.48491,1820,Active,Permanent,S&PF,CALIFORNIA,CDF,29:00:00,60,60,"SIte is located above the Laytonville Fire Station on a knol
by water tank.",West,Yes,PST,61.39
,40614,CSUF,1/1/2005,12/31/2022,32420332,SUGARLOAF (SHF),CA,Shasta,40.91596,-122.43483,3259,Active,Permanent,USFS,05,SHASTA TRINITY NF,19:00:00,60,60,Station sits midslope on a knife ridge that runs E-W.,West,Yes,PST,61.31
,409502,TOCO,12/5/2008,12/31/2022,32A04046,OCOEE,TN,Polk,35.15583,-84.59472,1322,Active,Permanent,USFS,08,CHEROKEE NF,5:20:00,60,60,,West,Yes,EST,61.3
,90402,GCOH,1/1/2005,12/31/2022,32733222,COHUTTA,GA,Murray,34.92250,-84.65944,1724,Active,Permanent,USFS,08,CHATTAHOOCHEE&OCONEE,5:30:00,60,60,,West,Yes,EST,61.27
,315501,NCHE,1/1/2005,12/31/2022,3334F776,CHEOAH,NC,Graham,35.33667,-83.82500,2000,Active,Permanent,USFS,08,NF'S IN N. CAROLINA,5:00:00,60,60,,West,Yes,EST,61.26
,82201,FSAN,1/1/2005,12/31/2022,3287E364,SANBORN,FL,Wakulla,30.07028,-84.59222,35,Active,Permanent,USFS,08,NF'S IN FLORIDA,19:50:00,60,60,,East,Yes,EST,61.19
,352547,OVIL,1/1/2005,12/31/2022,324A14E2,VILLAGE CREEK,OR,Lane,44.25239,-123.46386,1565,Active,Permanent,BLM,R9 Columbia Pac NW,EUGENE,53:40:00,60,60,"STATION LOCATED ON A 20 YARD BY 30 YARD LANDING.
STA. IS ON FINGER RIDGE RUNNING SOUTH INTO MAJOR DRAINAGE.
ACCESS ROAD IS BLOCKED BY GATE.  STA. 0.1 MI. TO NORTH.
THE ROAD ACCESSES THE STATION FROM THE NORTH.",West,Yes,PST,61.16
,165103,LLAC,1/1/2005,12/31/2022,8378A47C,LACASSINE,LA,Cameron,30.00167,-92.89333,5,Active,Permanent,FWS,REGION 4,SABINE NWR,59:00:00,60,60,"Lacassine RAWS is located near moist soil fields adjacent to a 16,000 acre fresh water impoundment marsh. Trees are abundant in the general area, however no trees are close to the site.",East,Yes,CST,61.06
,462601,VDAV,1/1/2005,12/31/2022,333481E6,DAVIS (BEARDEN),WV,Tucker,39.10500,-79.42611,3853,Active,Permanent,USFS,09,MONONGAHELA NF,17:20:00,60,60,MOUNTAIN TOP,East,Yes,EST,61
,414501,TKIR,1/1/2005,12/31/2022,884155F0,"KIRBYVILLE, TX",TX,Jasper,30.63306,-93.82861,118,Active,Permanent,S&PF,TEXAS,TEXAS FOREST SERVICE,5:50:00,60,60,Ecoregion - Level 1: Eastern Temperate Forests; Level 2: Southeastern USA Plains; Level 3: South Central Plains (35); Level 4: Flatwoods (35f); Site is located in E O Siecke State Forest.,West,Yes,CST,60.97
,43809,CBNL,1/1/2005,12/31/2022,CA22C55E,BEN LOMOND,CA,Santa Cruz,37.13094,-122.17261,2598,Active,Permanent,S&PF,CALIFORNIA,CDF,50:10:00,60,60,Site located at 13575 Empire Grade Rd Santa Cruz.,West,Yes,PST,60.95
,41213,CCRR,1/1/2005,12/31/2022,CA2132D4,CARPENTER RIDGE,CA,Butte,40.06866,-121.58400,4816,Active,Permanent,S&PF,CALIFORNIA,CDF,54:45:00,60,60,,West,Yes,PST,60.77
,162302,LVER,1/1/2005,12/31/2022,324301C8,VERNON,LA,Vernon,31.02828,-93.18450,350,Active,Permanent,USFS,08,KISATCHIE NF,59:00:00,60,60,,West,Yes,CST,60.76
,10702,ABAN,1/1/2005,12/31/2022,327ED2B6,BANKHEAD,AL,Lawrence,34.34417,-87.33750,970,Active,Permanent,USFS,08,NF'S IN ALABAMA,37:05:00,60,60,"RIDGE TOP
FIRE WX ZONE: 801",East,Yes,CST,60.75
,82002,FSUM,1/1/2005,12/31/2022,323A74A8,SUMATRA,FL,Liberty,30.02056,-84.98611,27,Active,Permanent,USFS,08,NF'S IN FLORIDA,48:10:00,60,60,,East,Yes,EST,60.74
,419901,TMCF,1/1/2005,12/31/2022,837184CC,MCFADDIN,TX,Jefferson,29.70722,-94.12111,5,Active,Permanent,FWS,REGION 2,MCFADDIN NWR,35:20:00,60,60,"RAWS is located on an upland site surrounded by coastal
marsh. Surrounding vegetation include grasses up to 3 feet
in height AGL and shrubs 5-6 feet in height AGL. No trees
in area. No slope or topography in area. RAWS sits on the
edge of a ditch. RAWS surrounded by wire fence.",West,Yes,CST,60.74
,162303,LDOV,1/1/2005,12/31/2022,333383D2,DOVE FIELD,LA,Vernon,31.03694,-92.98644,267,Active,Permanent,USFS,08,KISATCHIE NF,34:00:00,60,60,,West,Yes,CST,60.69
,40637,CMLM,8/7/2007,12/31/2022,FA61C7D2,MULE MOUNTAIN,CA,Shasta,40.56917,-122.50306,2044,Active,Permanent,NPS,PACIFIC WEST,WHISKEYTOWN NRA,0:30:00,60,60,,West,Yes,PST,60.62
,15201,AGRO,11/4/2016,12/31/2022,32B3C810,GROVE HILL,AL,Clarke,31.69069,-87.76058,445,Active,Permanent,S&PF,ALABAMA,AL S&PF,26:00:00,60,60,,West,Yes,CST,60.55
,352550,OHIG,1/1/2005,12/31/2022,324B5512,HIGH POINT,OR,Lane,43.90639,-123.37956,1935,Active,Permanent,BLM,R9 Columbia Pac NW,EUGENE,53:50:00,60,60,"SITE SITS ON TOP OF KNOLL IN AN ORCHARD AREA.  TREES IN THE
IMMEDIATED AREA ARE 10-12 FT.  SURROUNDING AREAS ARE DOUGLAS
FIR FORESTS.  NO WIND SHADOW.",West,Yes,PST,60.55
,313904,TTOW,3/28/2006,12/31/2022,32770282,TOW STRING,NC,Swain,35.54979,-83.29408,2994,Active,Permanent,BIA,Eastern,Cherokee Agency,16:55:00,60,60,,East,Yes,EST,60.5
,162401,LEVA,1/1/2005,12/31/2022,326E75D0,EVANGELINE,LA,Rapides,31.18500,-92.63139,185,Active,Permanent,USFS,08,KISATCHIE NF,43:10:00,60,60,,East,Yes,CST,60.47
,225502,MCOP,1/1/2005,12/31/2022,3910363A,COPIAH,MS,Copiah,31.94972,-90.38056,150,Active,Permanent,S&PF,MISSISSIPPI,FORESTRY COMMISSION,9:30:00,60,60,,West,Yes,CST,60.38
,82001,FWIL,1/1/2005,12/31/2022,3265A010,WILMA,FL,Liberty,30.18278,-84.94028,65,Active,Permanent,USFS,08,NF'S IN FLORIDA,47:50:00,60,60,,East,Yes,EST,60.02
,165102,LSAB,1/1/2005,12/31/2022,837817F2,SABINE,LA,Cameron,29.88889,-93.40278,6,Active,Permanent,FWS,REGION 4,SABINE NWR,49:50:00,60,60,"Sabine RAWS is located in a 125,000 acre saltwater marsh,
the station is on a levee, the highest point at 3 foot elv.
There are little to no trees",West,Yes,CST,59.95
,225101,MBIE,1/1/2005,12/31/2022,32762694,BIENVILLE,MS,Scott,32.31500,-89.48944,470,Active,Permanent,USFS,08,NF'S IN MISSISSIPPI,31:45:00,60,60,Site is on a ridge top with a slight slope to the SW behind,East,Yes,CST,59.88
,353041,OSIL,1/1/2005,12/31/2022,324BD306,SILVER BUTTE,OR,Douglas,42.85881,-123.37844,3973,Active,Permanent,BLM,R9 Columbia Pac NW,ROSEBURG,14:30:00,60,60,"LOCATED 50 FT. FROM CAMERA TOWER. RIDGELINE RUNS
S. TO N. UP TO CAMERA TOWER. STATION 50' FROM
TOWER EAST SIDE.",West,Yes,PST,59.72
,416101,TSOU,1/1/2005,12/31/2022,FA634432,SOUTHERN ROUGH,TX,,30.54472,-94.34611,100,Active,Permanent,NPS,INTERMOUNTAIN,BIG THICKET N.PRESER,38:20:00,60,60,,West,Yes,CST,59.68
,42608,CHEL,1/1/2005,12/31/2022,3239D35E,HELL HOLE,CA,Placer,39.06971,-120.41989,5240,Active,Permanent,USFS,05,ELDORADO NF,9:40:00,60,60,"Ridge. 1/4 mile south of Hell Hole Station, up the cut bank
south to ridge line, near the powerlines.

Site burned over in the King Fire, September 2014.",West,Yes,PST,59.63
,315602,NTUS,1/1/2005,12/31/2022,3288F680,TUSQUITEE,NC,Cherokee,35.07653,-84.12703,1829,Active,Permanent,USFS,08,NF'S IN N. CAROLINA,37:25:00,60,60,,East,Yes,EST,59.63
,10990,ALIR,1/1/2005,12/31/2022,FA509324,LIRI,AL,,34.46043,-85.59725,1374,Active,Permanent,NPS,SOUTHEAST,LITTLE R. CANYON NP,32:40:00,60,60,,East,Yes,CST,59.54
,226502,MCOV,1/1/2005,12/31/2022,391053DC,COVINGTON,MS,Covington,31.74972,-89.51639,290,Active,Permanent,S&PF,MISSISSIPPI,FORESTRY COMMISSION,9:50:00,60,60,,West,Yes,CST,59.48
"Deactivated 07/01/2024, no reason",319604,NCDI,1/1/2005,12/31/2022,323112E6,CEDAR ISLAND,NC,Carteret,34.95639,-76.27833,3,Deactive,Permanent,FWS,REGION 4,CEDAR ISLAND NWR,25:50:00,60,60,,West,Yes,EST,59.46
,41908,CFOR,1/1/2005,12/31/2022,327455F0,SEEDORCHARD,CA,Placer,39.09159,-120.73198,4355,Active,Permanent,USFS,05,TAHOE NF,33:10:00,60,60,"Area is located within a FS experimental research area (seed
orchard).  Site is on a predominant ridge line with complete
exposure in all directions. Mixed conifer stands, plantation
and grassey areas are in the surrounding landscape.",West,Yes,PST,59.43
,415201,TDAY,1/1/2005,12/31/2022,88408162,DAYTON,TX,Liberty,30.10500,-94.93139,100,Active,Permanent,S&PF,TEXAS,TEXAS FOREST SERVICE,22:20:00,60,60,"Ecoregion- Level 1: Eastern Temperate Forests; Level 2: Southeastern USA Plains; Level 3: Western Gulf Coastal Plain (34); Northern Humid Gulf Coastal Prairies (34a); Located near Dayton, Tx.",West,Yes,CST,59.36
,416099,TANA,1/1/2005,12/31/2022,8373D144,ANAHUAC,TX,Chambers,29.66917,-94.43833,5,Active,Permanent,FWS,REGION 2,ANAHUAC NWR,12:40:00,60,60,"RAWS located in upland grass prairie. Nearby vegetation
include grasses up to two feet in height. Few to no
shrubs in area. No trees. No slope or topography around.
Barbed wire fence 15-20 yards from RAWS.",West,Yes,CST,59.25
,41701,CPIK,1/1/2005,12/31/2022,32480260,PIKE COUNTY LOOKOUT,CA,Yuba,39.47469,-121.20241,3701,Active,Permanent,USFS,05,PLUMAS NF,10:00:00,60,60,"SITE is at Pike County Lookout.  Top of ridge overlooking
Sacramento basin to the south and Plumas NF to the north.
Mixed conifer and hardwood on slopes around lookout.",West,Yes,PST,59.2
,220601,MTIS,1/1/2005,12/31/2022,391096C2,TISHOMINGO,MS,Tishomingo,34.77750,-88.16528,300,Active,Permanent,S&PF,MISSISSIPPI,FORESTRY COMMISSION,14:10:00,60,60,,West,Yes,CST,59.11
,496024,HKLK,2/14/2008,12/31/2022,32807432,KEALAKOMO #2,HI,Hawaii,19.29278,-155.10750,97,Active,Permanent,NPS,PACIFIC WEST,HAWAII VOLCANOES NP,44:40:00,60,60,"station located south end of Volcano National Park in grass
land/lava flow approx 1/4 mile from coastline. Worked with Russ Gripp to update conflicting/inconsistant WIMS ID system in HI to accomadate additional stations, replaced old ID 328074 with new ID 496024",West,Yes,HST,59.1
,11401,AONE,9/2/2016,12/31/2022,32B3ADF6,ONEONTA,AL,Blount,33.93875,-86.38917,1104,Active,Permanent,S&PF,ALABAMA,AL S&PF,25:20:00,60,60,,West,Yes,CST,58.92
,346303,OKIA,1/1/2005,12/31/2022,32850562,KIAMICHI,OK,Le Flore,34.77556,-94.89778,2392,Active,Permanent,USFS,08,OUACHITA NF,59:10:00,60,60,"Station is located in the back corner of the Kiamichi Ranger
District Office. The office is located 3.9 miles north on
Hwy. 271 from the town of Talahina, OK.",West,Yes,CST,58.89
,222101,MYAL,12/31/2005,12/31/2022,3910C6BE,YALLABUSHA,MS,Yalobusha,33.98583,-89.79667,370,Active,Permanent,S&PF,MISSISSIPPI,FORESTRY COMMISSION,9:10:00,60,60,,West,Yes,CST,58.8
,80802,FBLO,1/1/2005,12/31/2022,3287F012,BLOXHAM,FL,Leon,30.35833,-84.61139,125,Active,Permanent,USFS,08,NF'S IN FLORIDA,29:25:00,60,60,,East,Yes,EST,58.72
,405001,TCRO,1/1/2005,12/31/2022,02608762,CROSSVILLE,TN,Cumberland,36.07444,-84.96361,1635,Active,Permanent,S&PF,TENNESSEE,DIVISION OF FORESTRY,6:30:00,60,60,,West,Yes,CST,58.63
,319507,NHOF,1/1/2005,12/31/2022,3281B3D6,HOFMANN FOREST,NC,Onslow,34.82499,-77.32307,42,Active,Permanent,S&PF,NORTH CAROLINA,DIV. OF FOREST RES.,10:30:00,60,60,Station is located in clearing of Pine Plantation,West,Yes,EST,58.58
,223701,MTOM,1/1/2005,12/31/2022,333444F8,TOMBIGBEE,MS,Choctaw,33.28056,-89.13889,550,Active,Permanent,USFS,08,NF'S IN MISSISSIPPI,0:30:00,60,60,Station is located at the Ackerman Workcenter. Ridge Top.,West,Yes,CST,58.56
,225301,MLAU,1/1/2005,12/31/2022,39106646,LAUDERDALE,MS,Lauderdale,32.36750,-88.45667,221,Active,Permanent,S&PF,MISSISSIPPI,FORESTRY COMMISSION,13:40:00,60,60,,West,Yes,CST,58.55
,86401,FOAS,1/1/2005,12/31/2022,325DC720,OASIS,FL,,25.86039,-81.03300,8,Active,Permanent,NPS,SOUTHEAST,BIG CYPRESS NP,37:50:00,60,60,,West,Yes,EST,58.5
,221502,MH41,1/1/2005,12/31/2022,FA6205C2,HIGHWAY 41,MS,,34.09028,-88.86472,320,Active,Permanent,NPS,SOUTHEAST,NATCHEZ TRACE PARKWY,52:40:00,60,60,,West,Yes,CST,58.41
,352557,OFIE,1/1/2005,12/31/2022,3260B4A6,FIELDS,OR,Lane,43.68053,-122.30203,3373,Active,Permanent,USFS,06,WILLAMETTE NF,17:30:00,60,60,FIRE WX FORECAST ZONE: 608,West,Yes,PST,58.41
,400801,TPSF,4/17/2019,12/31/2022,32A1E244,PICKETT STATE FOREST,TN,Fentress,36.53500,-84.81000,1720,Active,Permanent,S&PF,TENNESSEE,DIVISION OF FORESTRY,43:20:00,60,60,,West,Yes,CST,58.37
,86406,FPAW,10/31/2008,12/31/2022,3281132E,PANTHER WEST,FL,Collier,26.17167,-81.47889,15,Active,Permanent,FWS,REGION 4,FLORIDA PANTHER NWR,11:40:00,60,60,,West,Yes,EST,58.35
,319505,NSND,1/1/2005,12/31/2022,4072109A,SANDY RUN,NC,Onslow,34.61194,-77.48750,71,Active,Permanent,S&PF,NORTH CAROLINA,DIV. OF FOREST RES.,19:40:00,60,60,"Camp LeJuene, pine forest",West,Yes,EST,58.23
,161803,LKIS,1/1/2005,12/31/2022,32623746,NATCHITOCHES,LA,Natchitoches,31.49139,-93.19222,200,Active,Permanent,USFS,08,KISATCHIE NF,42:40:00,60,60,"Station located at Kisatchie Work Center compound. Open area
in general forest. Area surrounded by tall timber. WS/WD
situated on 70 foot Rohn 25G. Area not suitable to let down
style tower.",West,Yes,CST,58.2
,162502,LCAT,1/1/2005,12/31/2022,323BE330,CATAHOULA,LA,Grant,31.50222,-92.46167,230,Active,Permanent,USFS,08,KISATCHIE NF,43:00:00,60,60,"Station is located at the Catahoula Work Center. The station
is set on a Handat lunar lander with 20' letdown. The rubber
Owl mounted next to the rain guage appears to be keeping the
birds away. Area is open and well away fron wind obstruction",West,Yes,CST,58.17
,224601,MNES,1/1/2005,12/31/2022,39107530,NESHOBA,MS,Neshoba,32.79806,-89.12472,459,Active,Permanent,S&PF,MISSISSIPPI,FORESTRY COMMISSION,13:50:00,60,60,,West,Yes,CST,58.11
,406401,TMER,1/1/2005,12/31/2022,FA6216B4,MERIWETHER LEWIS,TN,Lewis,35.50250,-87.45806,920,Active,Permanent,NPS,SOUTHEAST,NATCHEZ TRACE PARKWY,22:20:00,60,60,,West,Yes,CST,58.11
,86704,FCHE,1/1/2005,12/31/2022,FA6255BE,CHEKIKA,FL,,25.62500,-80.57972,5,Active,Permanent,NPS,SOUTHEAST,EVERGLADES NP,30:55:00,60,60,,East,Yes,EST,58.06
,408302,TSHI,1/1/2005,12/31/2022,0260E284,SHILOH NMP,TN,Hardin,35.15500,-88.32167,420,Active,Permanent,S&PF,TENNESSEE,DIVISION OF FORESTRY,7:30:00,60,60,,West,Yes,CST,57.98
,319402,NBAC,1/1/2005,12/31/2022,4071A41A,BACK ISLAND,NC,Pender,34.53280,-77.72190,29,Active,Permanent,S&PF,NORTH CAROLINA,DIV. OF FOREST RES.,18:00:00,60,60,,West,Yes,EST,57.97
,91101,GDAW,1/1/2005,12/31/2022,3100148A,DAWSONVILLE,GA,Dawson,34.37639,-84.06000,1270,Active,Permanent,S&PF,GEORGIA,GEORGIA FORESTRY COM,2:10:00,60,60,,West,Yes,EST,57.91
,82203,FSTW,1/1/2005,12/31/2022,8378B70A,ST. MARKS (WEST),FL,,30.01056,-84.42444,50,Active,Permanent,FWS,REGION 4,ST MARKS NWR,46:50:00,60,60,,West,Yes,EST,57.9
,406601,TLEW,1/1/2005,12/31/2022,02609414,LEWISBURG TOWER,TN,Marshall,35.38167,-86.76583,1150,Active,Permanent,S&PF,TENNESSEE,DIVISION OF FORESTRY,6:40:00,60,60,,West,Yes,CST,57.83
,34702,AODE,1/1/2005,12/31/2022,3284F71C,ODEN,AR,Montgomery,34.62417,-93.80611,896,Active,Permanent,USFS,08,OUACHITA NF,27:10:00,60,60,"FIRE WX ZONE:
Located at the Oden Ranger District Office, west side of
compound area, in a grassy opening.  Watch out for the
wasps.",West,Yes,CST,57.73
,86403,FOCH,1/1/2005,12/31/2022,FA6246C8,OCHOPEE RAWS,FL,,25.89869,-81.31978,7,Active,Permanent,NPS,SOUTHEAST,BIG CYPRESS NP,3:40:00,60,60,,West,Yes,EST,57.73
,224101,MNOX,1/1/2005,12/31/2022,83786162,NOXUBEE - FTS,MS,Noxubee,33.26611,-88.79333,250,Active,Permanent,FWS,REGION 4,NOXUBEE NWR,58:10:00,60,60,,East,Yes,CST,57.69
,413701,TSBS,1/1/2005,12/31/2022,3287439C,SABINE SOUTH,TX,Sabine,31.43836,-93.76603,145,Active,Permanent,USFS,08,NF'S IN TEXAS,7:30:00,60,60,,West,Yes,CST,57.68
,408901,TARN,7/10/2019,12/31/2022,32A1D90C,ARNOLD AIR FORCE BASE,TN,Franklin,35.32133,-86.03383,995,Active,Permanent,S&PF,TENNESSEE,DIVISION OF FORESTRY,43:10:00,60,60,,West,Yes,CST,57.63
,414402,TWOO,1/1/2005,12/31/2022,8841A574,WOODVILLE,TX,Tyler,30.73694,-94.43250,264,Active,Permanent,S&PF,TEXAS,TEXAS FOREST SERVICE,4:20:00,60,60,Ecoregion- Level 1: Eastern Temperate Forests; Level 2: Southeastern USA Plains; Level 3: South Central Plains (35); Level 4: Southern Tertiary Uplands (35e); Site is located near Woodville TX.,West,Yes,CST,57.62
,319803,NSUN,1/1/2005,12/31/2022,3271024C,SUNNY POINT,NC,Brunswick,34.00377,-77.99766,30,Active,Permanent,S&PF,NORTH CAROLINA,DIV. OF FOREST RES.,18:30:00,60,60,,West,Yes,EST,57.59
,223501,MHOL,1/1/2005,12/31/2022,3910D5C8,HOLMES,MS,Holmes,33.22111,-90.19833,22,Active,Permanent,S&PF,MISSISSIPPI,FORESTRY COMMISSION,9:20:00,60,60,,West,Yes,CST,57.58
,86405,FPAE,10/31/2008,12/31/2022,32810058,PANTHER EAST,FL,Collier,26.16861,-81.36444,15,Active,Permanent,FWS,REGION 4,FLORIDA PANTHER NWR,11:30:00,60,60,,West,Yes,EST,57.57
,12801,ASCL,10/7/2014,12/31/2022,323C02F6,SCHOOLHOUSE,AL,Clay,33.16397,-86.09103,932,Active,Permanent,USFS,08,NF'S IN ALABAMA,49:40:00,60,60,,East,Yes,CST,57.53
,42012,COAR,9/2/2016,12/31/2022,32B525FE,OAK RIDGE,CA,Sonoma,38.73806,-123.30839,1890,Active,Permanent,S&PF,CALIFORNIA,CDF,33:10:00,60,60,,West,Yes,PST,57.48
,222401,MMNR,1/1/2005,12/31/2022,3910B02E,MONROE,MS,Monroe,33.79389,-88.34667,354,Active,Permanent,S&PF,MISSISSIPPI,FORESTRY COMMISSION,14:30:00,60,60,,West,Yes,CST,57.44
,220202,MWIN,1/1/2005,12/31/2022,3332B4B2,WINBORN,MS,Marshall,34.69817,-89.30406,500,Active,Permanent,USFS,08,NF'S IN MISSISSIPPI,9:50:00,60,60,,West,Yes,CST,57.42
,313903,NCOW,4/6/2006,12/31/2022,327B3684,COW MOUNTAIN,NC,Swain,35.48131,-83.32239,2390,Active,Permanent,BIA,Eastern,Cherokee Agency,17:05:00,60,60,heavy brush/timber,East,Yes,EST,57.35
,40246,CDUT,7/15/2010,12/31/2022,32A0034C,DUTCH-INDY,CA,Siskiyou,41.64353,-123.44407,2296,Active,Permanent,USFS,05,KLAMATH NF,56:30:00,60,60,Site is located at the head of Dutch Creek along the divide with Independence Creek.  The site is at a lower mid elevation in the Klamath River drainage between Somes Bar and Happy Camp.,West,Yes,PST,57.28
,32001,ADVK,1/1/2005,12/31/2022,3289F47A,DEVILS KNOB,AR,Johnson,35.61407,-93.53880,2100,Active,Permanent,USFS,08,OZARK-ST. FRANCIS NF,8:50:00,60,60,"The site is located in a field about 100 yds. from the farm
owners home. It's enclosed by a small red corral unit.",West,Yes,CST,57.14
,361291,PQUA,7/20/2007,12/31/2022,D6805150,QUARRY TRAIL,PA,Westmoreland,40.13111,-79.21611,2740,Active,Permanent,S&PF,PENNSYLVANIA,DCNR,8:57:00,60,60,Forest District 04.,East,Yes,EST,57.08
,161902,LGUM,1/1/2005,12/31/2022,32744686,GUM SPRINGS,LA,Winn,31.89878,-92.78293,300,Active,Permanent,USFS,08,KISATCHIE NF,42:30:00,60,60,"Station is located in open glade in mixed canopy forest. WS/
WD are on top of 125 foot cab style lookout tower. Site is",East,Yes,CST,57.07
,405101,TWES,1/1/2005,12/31/2022,026034EC,LENOIR CITY,TN,Loudon,35.84417,-84.33167,1240,Active,Permanent,S&PF,TENNESSEE,DIVISION OF FORESTRY,5:40:00,60,60,,West,Yes,EST,57.07
,40231,CSOM,1/1/2005,12/31/2022,323892AE,SOMES BAR,CA,Siskiyou,41.39007,-123.49267,915,Active,Permanent,USFS,05,SIX RIVERS NF,16:30:00,60,60,"Valley station within the Klamath River Canyon. Located at the old Somes Bar Ranger Station. Station receives high summer temps and strong afternoon upriver winds. Ground cover - grass, brush and mixed conifer.",West,Yes,PST,57.03
,12902,ASHK,1/1/2005,12/31/2022,32765004,SHOAL CREEK,AL,Cleburne,33.64722,-85.63444,908,Active,Permanent,USFS,08,NF'S IN ALABAMA,14:20:00,60,60,,West,Yes,CST,56.92
,400902,TBIG,1/1/2005,12/31/2022,FA6321D4,BISO-NP,TN,Scott,36.47500,-84.65417,1445,Active,Permanent,NPS,SOUTHEAST,BIG SOUTH FORK NRRA,53:50:00,60,60,,East,Yes,EST,56.84
,319802,NNAC,1/1/2005,12/31/2022,327124A0,NATURE CONSERVANCY,NC,Brunswick,34.09001,-78.30801,60,Active,Permanent,S&PF,NORTH CAROLINA,DIV. OF FOREST RES.,53:40:00,60,60,"Flatwoods, longleaf pine stand.",West,Yes,EST,56.82
,10402,ABRB,9/2/2016,12/31/2022,32B3BE80,BROWNSBORO,AL,Madison,34.74067,-86.43503,663,Active,Permanent,S&PF,ALABAMA,AL S&PF,25:40:00,60,60,,West,Yes,CST,56.79
,101019,MHHS,1/1/2005,12/31/2022,323F83EC,HELLS HALF,ID,Idaho,45.64548,-114.62798,8100,Active,Permanent,USFS,01,BITTERROOT NF,3:00:00,60,60,Ridgetop location near Hells Half Acre Lookout.  This site is free from snow and available for vehicle travel by the first week in July each year.,West,Yes,MST,56.78
,408001,TCHC,1/1/2005,12/31/2022,0260B2F8,CHICKASAW SF,TN,Hardeman,35.37132,-88.82893,439,Active,Permanent,S&PF,TENNESSEE,DIVISION OF FORESTRY,7:00:00,60,60,,West,Yes,CST,56.77
,409503,TDEL,8/21/2019,12/31/2022,0260510A,DELANO,TN,Polk,35.24778,-84.58139,695,Active,Permanent,S&PF,TENNESSEE,DIVISION OF FORESTRY,6:00:00,60,60,,West,Yes,EST,56.76
,223301,MDRD,1/1/2005,12/31/2022,3282C248,DELTA RD,MS,Sharkey,32.90333,-90.87167,100,Active,Permanent,USFS,08,NF'S IN MISSISSIPPI,9:30:00,60,60,,West,Yes,CST,56.68
,100424,ILIN,1/1/2005,12/31/2022,3273D1D0,LINES CREEK,ID,Shoshone,47.11092,-116.22518,5140,Active,Permanent,USFS,01,IDAHO PANHANDLE NF,8:50:00,60,60,Ridgetop in Fire Zone 101,West,Yes,PST,56.64
,12701,ATAL,1/1/2005,12/31/2022,3236363E,TALLADEGA,AL,Talladega,33.44111,-86.08111,600,Active,Permanent,USFS,08,NF'S IN ALABAMA,26:40:00,60,60,"FIRE WX ZONE: 807

20' ws",West,Yes,CST,56.63
,90401,GCHS,1/1/2005,12/31/2022,310007FC,CHATSWORTH,GA,Murray,34.76639,-84.75889,765,Active,Permanent,S&PF,GEORGIA,GEORGIA FORESTRY COM,2:00:00,60,60,,West,Yes,EST,56.61
,86702,FCAC,1/1/2005,12/31/2022,FA6332A2,CACHE,FL,Miami-Dade,25.39028,-80.68028,5,Active,Permanent,NPS,SOUTHEAST,EVERGLADES NP,30:45:00,60,60,,East,Yes,EST,56.59
,41214,CJAR,1/1/2005,12/31/2022,CA2B4516,JARBO GAP,CA,Butte,39.73591,-121.48898,2535,Active,Permanent,S&PF,CALIFORNIA,CDF,13:40:00,60,60,"Station is sited on a ridge above the Feather River canyon.
Location is onthe edge of a large fire from 2002.",West,Yes,PST,56.55
,34802,AJES,1/1/2005,12/31/2022,3334A70A,JESSIEVILLE,AR,Garland,34.69194,-93.22000,675,Active,Permanent,USFS,08,OUACHITA NF,2:30:00,60,60,"Site is on Blocker Property, located 10 miles west of Jessie
ville on St. Hwy. 298.Station is on south side of road in
open field.",West,Yes,CST,56.5
,86402,FMIL,1/1/2005,12/31/2022,FA62232E,MILES CITY RAWS,FL,,26.24831,-81.29533,15,Active,Permanent,NPS,SOUTHEAST,BIG CYPRESS NP,45:20:00,60,60,,East,Yes,EST,56.41
,13001,AEUT,9/2/2016,12/31/2022,32B3D5B4,EUTAW,AL,Greene,32.91272,-87.89519,372,Active,Permanent,S&PF,ALABAMA,AL S&PF,26:10:00,60,60,,West,Yes,CST,56.29
,13201,AOKM,1/1/2005,12/31/2022,3273B436,OAKMULGEE,AL,Bibb,32.95722,-87.17056,363,Active,Permanent,USFS,08,NF'S IN ALABAMA,26:30:00,60,60,FIRE WX ZONE: 809,West,Yes,CST,56.23
,160401,LCAN,1/1/2005,12/31/2022,32833036,CANEY,LA,Claiborne,32.80417,-93.06667,230,Active,Permanent,USFS,08,KISATCHIE NF,58:50:00,60,60,,West,Yes,CST,56.05
,12201,MMLO,12/31/2005,12/31/2022,837A8764,MT. LONGLEAF,AL,,33.71722,-85.76222,1050,Active,Permanent,FWS,REGION 4,ST MARKS NWR,46:40:00,60,60,,West,Yes,CST,56.03
,300712,YUSM,1/29/2008,12/31/2022,3333D3AE,USMA,NY,Orange,41.36500,-74.02667,922,Active,Permanent,DOD,USA,WEST POINT,55:50:00,60,60,"Range 10 at US Army Garrison West Point, NY.  Restricted Training Area.  Site is in a clearing surrounded by rolling rocky hills largely covered with young deciduous forest.  Few buildings nearby.",West,Yes,EST,56
,90201,GARM,1/1/2005,12/31/2022,32732154,ARMUCHEE,GA,Walker,34.69528,-85.17361,1152,Active,Permanent,USFS,08,CHATTAHOOCHEE&OCONEE,31:35:00,60,60,,East,Yes,EST,55.99
,312001,NREN,1/1/2005,12/31/2022,4070A6E0,RENDEZVOUS MTN.,NC,Wilkes,36.22717,-81.29666,2384,Active,Permanent,S&PF,NORTH CAROLINA,DIV. OF FOREST RES.,32:30:00,60,60,Rendezvous Mountain State Forest.  Hilltop location.,East,Yes,EST,55.96
,441906,VSAW,1/1/2005,12/31/2022,FA665084,SAWMILL RIDGE,VA,Rockingham,38.09992,-78.79192,2072,Active,Permanent,NPS,NORTHEAST,SHENANDOAH NP,35:55:00,60,60,,East,Yes,EST,55.96
,301111,YCAT,12/20/2017,12/31/2022,6250A590,CATSKILL CENTER,NY,Ulster,42.02750,-74.26889,670,Active,Permanent,S&PF,NEW YORK,"DEC,FOREST PROT&FIRE",48:05:00,60,60,NYS DEC Belleayre Catskill Interpretive Center,East,Yes,EST,55.88
,407102,TBLE,1/1/2005,12/31/2022,0260427C,BLEDSOE SF,TN,Bledsoe,35.68194,-85.27333,1780,Active,Permanent,S&PF,TENNESSEE,DIVISION OF FORESTRY,5:50:00,60,60,,West,Yes,CST,55.86
,15501,ASDH,9/2/2016,12/31/2022,32B3C6C2,SANDERS HILL,AL,Pike,31.70058,-86.03253,528,Active,Permanent,S&PF,ALABAMA,AL S&PF,25:50:00,60,60,,West,Yes,CST,55.85
,353209,OMOU,1/1/2005,12/31/2022,32402EF8,MOUNT STELLA,OR,Jackson,42.93611,-122.43472,4700,Active,Permanent,USFS,06,ROGUE RIVER/SISKIYOU,39:30:00,60,60,"This site used to sit north of the lookout tower, was moved
to new location about 2500ft south of the lookout just above
the access road, there is a FS brass cap at the new location
see map, and new Lat: and Long: for better site location.
Site is still represntative of previous site.",West,Yes,PST,55.76
,413503,TZAV,5/28/2010,12/31/2022,32888010,ZAVALLA,TX,Angelina,31.17720,-94.38386,127,Active,Permanent,USFS,08,NF'S IN TEXAS,2:20:00,60,60,,West,Yes,CST,55.67
,350728,OEAG,1/1/2005,12/31/2022,600037F4,EAGLE CREEK,OR,Clackamas,45.36794,-122.33097,740,Active,Permanent,S&PF,OREGON,DEPT OF FORESTRY,13:10:00,60,60,,West,Yes,PST,55.41
,412901,TSN2,12/13/2017,12/31/2022,3335D360,SABINE NORTH 2,TX,Shelby,31.80247,-94.00022,229,Active,Permanent,USFS,08,NF'S IN TEXAS,0:40:00,60,60,,West,Yes,CST,55.4
,319004,NNWB,1/1/2005,12/31/2022,407020F4,NEW BERN,NC,Craven,35.09686,-77.11099,20,Active,Permanent,S&PF,NORTH CAROLINA,DIV. OF FOREST RES.,17:50:00,60,60,,West,Yes,EST,55.29
,83001,FLSU,1/1/2005,12/31/2022,837724FA,LOWER SUWANNEE,FL,,29.37278,-83.04472,15,Active,Permanent,FWS,REGION 4,LOWER SUWANNEE NWR,47:40:00,60,60,,West,Yes,EST,55.23
,86404,FRAC,1/1/2005,12/31/2022,FA50C358,RACCOON POINT RAWS,FL,,25.97806,-80.90414,7,Active,Permanent,NPS,SOUTHEAST,BIG CYPRESS NP,22:43:00,60,60,,West,Yes,EST,55.16
,404001,TCAM,1/1/2005,12/31/2022,0260C468,CAMDEN TOWER,TN,Benton,36.06611,-88.16861,512,Active,Permanent,S&PF,TENNESSEE,DIVISION OF FORESTRY,7:10:00,60,60,,West,Yes,CST,55.14
,315902,NJCY,1/1/2005,12/31/2022,40719180,JACKSON COUNTY,NC,Jackson,35.31583,-83.20694,2800,Active,Permanent,S&PF,NORTH CAROLINA,DIV. OF FOREST RES.,10:12:00,60,60,Jackson County Airport.,West,Yes,EST,55.07
,40507,CMAD,1/1/2005,12/31/2022,3242B0BC,MAD RIVER,CA,Trinity,40.46302,-123.52379,2873,Active,Permanent,USFS,05,SIX RIVERS NF,53:20:00,60,60,"STATION LOCATED ON THE MAD RIVER FOREST SERVICE COMPOUND
APPROXIMATELY 1000 FT FROM HIGHWAY 36. THE STATION IS SET UP
ABOUT 125 FEET FROM THE FIRE STATION. IT IS ON A RIDGE TOP
WITH A SOUTHEAST EXPOSURE.",West,Yes,PST,55.03
,36502,ABLU,1/1/2005,12/31/2022,07200580,BLUFF CITY,AR,Nevada,33.69222,-93.16250,360,Active,Permanent,S&PF,ARKANSAS,ARKANSAS FORESTRY,10:00:00,60,60,,West,Yes,CST,54.98
Winter deactivation: last obs 10/25/24,100717,IEAG,1/1/2005,12/31/2022,326FD7D2,EAGLE,ID,Clearwater,46.80083,-115.53722,5585,Active,Permanent,USFS,01,NEZ PERCE-CLEARWATER,6:50:00,60,60,"station sits atop Eagle Point, next to the lookout",West,Yes,PST,54.93
,35102,ASHE,1/1/2005,12/31/2022,072016F6,SHERIDAN,AR,Grant,34.27643,-92.39942,272,Active,Permanent,S&PF,ARKANSAS,ARKANSAS FORESTRY,10:10:00,60,60,Located at the arkansas forestry office hwy 35 south,West,Yes,CST,54.88
,496033,HKPR,8/3/2011,12/31/2022,AA10E258,KAPAPALA RANCH,HI,Hawaii,19.25811,-155.44178,1733,Active,Permanent,S&PF,HAWAII,DEPT OF LAND AND NR,48:00:00,60,60,"18 miles south of Volcano National Park on the mountain (maulka) side of the road. .1 miles north west of highway 11.
Surrounding ara is grazed pasture land along the old Highway.",West,Yes,HST,54.87
,32101,AARM,10/9/2008,12/31/2022,328C5342,ARMSTEAD MOUNTAIN,AR,Pope,35.57306,-92.81917,1560,Active,Permanent,USFS,08,OZARK-ST. FRANCIS NF,52:40:00,60,60,SITS IN A PASTURE ON A FLAT PLATEAU.,West,Yes,CST,54.79
,12302,ATRP,10/6/2014,12/31/2022,3242534E,TERRAPIN CREEK,AL,Cleburne,33.89347,-85.52789,805,Active,Permanent,USFS,08,NF'S IN ALABAMA,34:50:00,60,60,,West,Yes,CST,54.68
,84402,FMER,1/1/2005,12/31/2022,327D53AC,MERRITT ISLAND,FL,Brevard,28.64083,-80.73083,30,Active,Permanent,FWS,REGION 4,MERRITT ISLAND NWR,15:00:00,60,60,"Site is located at the Merritt Island National Wildlife
Refuge Helibase. The Helibase is located behind the refuge
maintenance yard along State Road 402.",West,Yes,EST,54.59
,86301,FHON,11/7/2013,12/31/2022,AAB081E8,HONEYMOON RAWS,FL,Collier,26.19475,-81.06677,14,Active,Permanent,NPS,SOUTHEAST,BIG CYPRESS NP,45:30:00,60,60,,East,Yes,EST,54.54
,313404,NJES,4/7/2011,12/31/2022,FA5063A0,JESSEN STATION,NC,Yancey,36.05283,-82.37907,3634,Active,Permanent,S&PF,NORTH CAROLINA,DIV. OF FOREST RES.,45:50:00,60,60,,West,Yes,EST,54.48
,317901,NFAI,1/1/2005,12/31/2022,40704512,FAIRFIELD,NC,Hyde,35.54172,-76.22308,5,Active,Permanent,S&PF,NORTH CAROLINA,DIV. OF FOREST RES.,17:20:00,60,60,Open area adjacent to District 13 Office.  Tri leg tower.,West,Yes,EST,54.47
,83703,FLWR,11/19/2007,12/31/2022,32B0F456,LAKE WOODRUFF,FL,Volusia,29.09815,-81.36652,16,Active,Permanent,FWS,REGION 4,LAKE WOODRUFF NWR,17:40:00,60,60,,West,Yes,EST,54.34
,36901,AUAM,1/23/2007,12/31/2022,328BA1F2,UAM,AR,Drew,33.59979,-91.81080,275,Active,Permanent,S&PF,ARKANSAS,ARKANSAS FORESTRY,0:20:00,60,60,,West,Yes,CST,54.26
,352025,OJOR,12/31/2005,12/31/2022,60004164,JORDAN,OR,Linn,44.71756,-122.69225,742,Active,Permanent,S&PF,OREGON,DEPT OF FORESTRY,13:20:00,60,60,,West,Yes,PST,54.23
,405801,TCOV,12/31/2018,12/31/2022,32B79384,COVINGTON,TN,Tipton,35.58917,-89.58692,280,Active,Permanent,S&PF,TENNESSEE,DIVISION OF FORESTRY,19:40:00,60,60,,West,Yes,CST,54.23
,383001,SHOR,4/23/2015,12/31/2022,3250C446,HORRY,SC,Horry,33.93680,-79.08485,8,Active,Permanent,S&PF,SOUTH CAROLINA,FORESTRY COMMISSION,42:20:00,60,60,,East,Yes,EST,54.22
,43210,CSTS,1/26/2007,12/31/2022,32870096,COTTAGE,CA,Calaveras,38.34587,-120.22952,6064,Active,Permanent,USFS,05,STANISLAUS NF,54:50:00,60,60,"On Summit Level Ridge near Cottage Springs in the
North Fork of the Stanislaus River watershed.",West,Yes,PST,54.2
,40408,CHOO,1/1/2005,12/31/2022,326D5432,HOOPA,CA,Humboldt,41.04783,-123.67128,375,Active,Permanent,BIA,Pacific,Hoopa Valley Tribe,40:40:00,60,60,"STATION LOCATED 50` WEST OF TRINITY RIVER ON OPEN BENCH.
APPX 10` ABOVE HIGH WATER LINE.  HWY 96 IS 500` TO WEST.
LOCATION IS CLEAR OF ALL TREES/BRUSH FOR 500`.
STATION IS IN COMPOUND WITH EPA EQUIPMENT, POC FOR THAT IS
KEVIN McKERNAN OF HOOPA TRIBAL EPA (530) 625-5515",West,Yes,PST,54.19
,402102,TBUR,1/1/2005,12/31/2022,0260A18E,BURNS,TN,Dickson,36.06500,-87.28306,706,Active,Permanent,S&PF,TENNESSEE,DIVISION OF FORESTRY,6:50:00,60,60,,West,Yes,CST,54.18
,401801,TGRF,7/9/2010,12/31/2022,02600176,GREENFIELD,TN,Weakley,36.16083,-88.80010,499,Active,Permanent,S&PF,TENNESSEE,DIVISION OF FORESTRY,5:10:00,60,60,,West,Yes,CST,54.16
,463301,VFLA,4/18/2005,12/31/2022,9000650A,FLATWOODS,WV,Braxton,38.63611,-80.61972,1642,Active,Permanent,S&PF,WEST VIRGINIA,DOF,17:20:00,60,60,"Moved from airport location on 6/2/16, due to construction of a hanger right next to station.  Now at end of Stoney Creek Road on the Elk River WMA (state property).",West,Yes,EST,54.13
,347701,OBRB,1/1/2005,12/31/2022,3334C2EC,BROKEN BOW,OK,McCurtain,34.05000,-94.73722,500,Active,Permanent,USFS,08,OUACHITA NF,2:50:00,60,60,"Station is located in the right rear area of the OK Forestry
Commision's office located north of Broken Bow, OK on Hwy.
259, appr. 2 miles on the right side of the Hwy.",West,Yes,CST,54.03
,84001,FPAI,2/9/2011,12/31/2022,AAC0E1A2,PAISLEY,FL,Lake,28.99557,-81.53687,85,Active,Permanent,USFS,08,NF'S IN FLORIDA,48:00:00,60,60,,East,Yes,EST,53.94
,314301,NNCP,1/1/2005,12/31/2022,324E41A4,NORTH COVE PINNACLE (FR1),NC,Burke,35.81658,-81.93722,2560,Active,Permanent,S&PF,NORTH CAROLINA,DIV. OF FOREST RES.,16:40:00,60,60,"bug kill southern yellow pine with low brush mtn laurel
and appalachain hardwood scattered throughout.",West,Yes,EST,53.83
,315406,NDBR,2/8/2008,12/31/2022,40722500,DARE BOMB RANGE (FR2),NC,Dare,35.76082,-75.87145,3,Active,Permanent,S&PF,NORTH CAROLINA,DIV. OF FOREST RES.,48:45:00,60,60,,East,Yes,EST,53.83
,170791,MMCF,1/1/2005,12/31/2022,FA62E630,MCFARLAND HILL,ME,Hancock,44.37694,-68.26083,424,Active,Permanent,NPS,NORTHEAST,ACADIA NP,58:00:00,60,60,,East,Yes,EST,53.81
,400101,TSTI,6/11/2010,12/31/2022,32B14522,STILLY HOLLOW,TN,Stewart,36.51281,-87.95106,580,Active,Permanent,USFS,08,LAND BETWEEN LAKES,26:00:00,60,60,,West,Yes,CST,53.77
,14201,ATSK,1/1/2005,12/31/2022,327EB750,TUSKEGEE,AL,Macon,32.48361,-85.55556,509,Active,Permanent,USFS,08,NF'S IN ALABAMA,26:50:00,60,60,,West,Yes,CST,53.68
,156502,KHMW,1/1/2005,12/31/2022,FA65D19E,HOUCHIN MEADOW,KY,,37.13167,-86.14806,774,Active,Permanent,NPS,SOUTHEAST,MAMMOTH CAVE NP,12:30:00,60,60,,West,Yes,CST,53.64
,41808,CSEC,1/1/2005,12/31/2022,CA21815A,SECRET TOWN,CA,Nevada,39.18383,-120.88442,2757,Active,Permanent,S&PF,CALIFORNIA,CDF,28:40:00,60,60,"Ponderosa Pine and Manzanita Brush
Site is adjacent to a water reservoir forebay.
This is an F6",West,Yes,PST,53.61
,414201,TCLD,1/1/2005,12/31/2022,3288B58A,COLDSPRINGS,TX,San Jacinto,30.51817,-95.14475,145,Active,Permanent,USFS,08,NF'S IN TEXAS,2:50:00,60,60,,West,Yes,CST,53.57
,83501,FCEN,1/1/2005,12/31/2022,327FA6DC,CENTRAL,FL,Lake,29.10636,-81.62944,74,Active,Permanent,USFS,08,NF'S IN FLORIDA,57:40:00,60,60,,East,Yes,EST,53.56
,353038,OTOK,1/1/2005,12/31/2022,3261233E,TOKETEE,OR,Douglas,43.21856,-122.41258,3360,Active,Permanent,USFS,06,UMPQUA NF,32:30:00,60,60,"STATION SITS ON THE END OF A REMOTE AIRFIELD. 20' TO 30'
MIXED CONIFERS TO THE NORTH AND EAST SIDE.",West,Yes,PST,53.46
,40511,CYOL,1/1/2005,12/31/2022,323AA2C0,YOLLA BOLLA,CA,Trinity,40.33745,-123.06562,4481,Active,Permanent,USFS,05,SHASTA TRINITY NF,35:40:00,60,60,"YOLLA BOLLA RD - RIDGETOP
20' WS, LUNAR TOWER, VOICE SYNTH",West,Yes,PST,53.43
,159901,KKYL,1/1/2005,12/31/2022,326F645C,KYLBL,KY,Trigg,36.77805,-88.05713,649,Active,Permanent,USFS,08,LAND BETWEEN LAKES,21:20:00,60,60,,West,Yes,CST,53.43
,157002,KSOM,1/1/2005,12/31/2022,3284B416,SOMERSET,KY,Pulaski,37.05270,-84.61371,921,Active,Permanent,USFS,08,DANIEL BOONE NF,1:30:00,60,60,"Located adjacent to the Somerset Airport in Somerset, KY.",West,Yes,EST,53.35
,42309,CWOO,1/1/2005,12/31/2022,CA28E2E0,WOODACRE,CA,Marin,37.99056,-122.64472,1400,Active,Permanent,S&PF,CALIFORNIA,MARIN COUNTY,51:20:00,60,60,,West,Yes,PST,53.33
,159801,KYEL,1/1/2005,12/31/2022,FA41A3DA,YELLOW CREEK,KY,,36.60361,-83.69611,1090,Active,Permanent,NPS,SOUTHEAST,CUMBERLAND GAP NHP,26:50:00,60,60,,West,Yes,EST,53.28
,384102,SWAM,11/29/2012,12/31/2022,325D37A4,WAMBAW,SC,Charleston,32.97417,-79.66861,19,Active,Permanent,USFS,08,FRANCIS MARION&SUMTR,47:10:00,60,60,,East,Yes,EST,53.24
,92201,GDAL,1/1/2005,12/31/2022,31002110,DALLAS,GA,Paulding,33.83333,-84.74000,951,Active,Permanent,S&PF,GEORGIA,GEORGIA FORESTRY COM,2:20:00,60,60,,West,Yes,EST,53.23
,81301,FOLU,1/1/2005,12/31/2022,3271113A,OLUSTEE,FL,Baker,30.25139,-82.42083,175,Active,Permanent,USFS,08,NF'S IN FLORIDA,4:40:00,60,60,,West,Yes,EST,53.22
,82202,FSTM,1/1/2005,12/31/2022,8376D684,ST. MARKS  (EAST),FL,,30.13917,-84.13639,15,Active,Permanent,FWS,REGION 4,ST MARKS NWR,14:50:00,60,60,,West,Yes,EST,53.17
,159501,KALP,1/1/2005,12/31/2022,403016B2,ALPINE,KY,Cumberland,36.79556,-85.38028,853,Active,Permanent,S&PF,KENTUCKY,DIVISION OF FORESTRY,56:00:00,60,60,,East,Yes,CST,53.17
,92901,GNEW,1/1/2005,12/31/2022,310044F6,NEWNAN,GA,Coweta,33.36528,-84.85972,873,Active,Permanent,S&PF,GEORGIA,GEORGIA FORESTRY COM,2:40:00,60,60,,West,Yes,EST,53.1
,40423,CAPT,1/1/2005,12/31/2022,CA459524,ALDER POINT,CA,Humboldt,40.18602,-123.59106,1059,Active,Permanent,S&PF,CALIFORNIA,CDF,51:20:00,60,60,Located in grassy area at southern end of parking lot,West,Yes,PST,53.08
,361071,PBEA,7/24/2007,12/31/2022,D68027C0,BEARS HEAD,PA,Schuylkill,40.80942,-76.01100,1172,Active,Permanent,S&PF,PENNSYLVANIA,DCNR,8:27:00,60,60,Forest District 18.  Within Tuscarora State Park.,East,Yes,EST,53.08
,460902,VWRF,3/28/2012,12/31/2022,32D6D046,WVU RESEARCH FOREST,WV,Preston,39.67694,-79.77194,2280,Active,Permanent,S&PF,WEST VIRGINIA,DOF,12:00:00,60,60,"Large grassy area located near the HQ for the WVU Research Forest, flat, ridgetop.",East,Yes,EST,52.99
,315201,NPOC,1/1/2005,12/31/2022,8376E31E,POCOSIN LAKES,NC,Washington,35.73722,-76.51444,6,Active,Permanent,FWS,REGION 4,POCOSIN LAKES NWR,17:40:00,60,60,,West,Yes,EST,52.94
,33202,AGUY,1/1/2005,12/31/2022,0720236C,GUY,AR,Faulkner,35.32667,-92.27611,610,Active,Permanent,S&PF,ARKANSAS,ARKANSAS FORESTRY,10:20:00,60,60,"In a small field about 200 yards North of the HWY, surround treeline with small hardwood trees and mostly pasture land in the surrounding area.",West,Yes,CST,52.86
,316302,NRUT,1/1/2005,12/31/2022,3332073C,RUTHERFORD COUNTY,NC,Rutherford,35.42861,-81.93945,1056,Active,Permanent,S&PF,NORTH CAROLINA,DIV. OF FOREST RES.,46:40:00,60,60,"Located at NCFS Rutherford County HQ/adjacent to Airport.
Combination grass/brush - surrounded by Va Pine to the E & S
Open/buildings to W & N",East,Yes,EST,52.85
,403604,TWAT,3/5/2009,12/31/2022,32A05330,WATAUGA,TN,Unicoi,36.20127,-82.38883,2830,Active,Permanent,USFS,08,CHEROKEE NF,16:45:00,60,60,,East,Yes,EST,52.76
,352562,OGRN,7/23/2010,12/31/2022,60002482,GREEN MOUNTAIN,OR,Lane,43.72528,-122.80556,3064,Active,Permanent,S&PF,OREGON,DEPT OF FORESTRY,13:00:00,60,60,"Young forest regrowth, 8 years",West,Yes,PST,52.71
,460901,VKIN,1/1/2005,12/31/2022,900086F8,KINGWOOD,WV,Preston,39.40667,-79.70083,1873,Active,Permanent,S&PF,WEST VIRGINIA,DOF,17:40:00,60,60,"Large, relatively flat grassy area on top of hill; old strip
mine site.",West,Yes,EST,52.69
,40421,CEEC,1/1/2005,12/31/2022,CA2AC1F8,EEL RIVER CAMP,CA,Humboldt,40.13838,-123.82376,476,Active,Permanent,S&PF,CALIFORNIA,CDF,28:10:00,60,60,Station is located at Eel River Conservation Camp.,West,Yes,PST,52.64
,280191,JTEE,4/6/2006,12/31/2022,FF1052CC,TEETERTOWN,NJ,Hunterdon,40.74917,-74.85861,1017,Active,Permanent,S&PF,NEW JERSEY,FOREST FIRE SERVICE,51:15:00,60,60,,East,Yes,EST,52.61
,83502,FLKG,1/1/2005,12/31/2022,3286B1E2,LAKE GEORGE,FL,Marion,29.39861,-81.80556,129,Active,Permanent,USFS,08,NF'S IN FLORIDA,57:30:00,60,60,South Exposure,East,Yes,EST,52.58
,86102,GDIN,4/21/2008,12/31/2022,3279E518,DING DARLING NWR,FL,Lee,26.44083,-82.10472,10,Active,Permanent,FWS,REGION 4,DING DARLING NWR,17:20:00,60,60,,West,Yes,EST,52.55
,400201,TFCL,1/1/2005,12/31/2022,C50003F6,FORT CAMPBELL,TN,Montgomery,36.62556,-87.53694,545,Active,Permanent,DOD,USA,FORT CAMPBELL,15:00:00,60,60,,West,Yes,CST,52.53
,34503,AMRI,12/31/2005,12/31/2022,3275219A,MARIANNA,AR,Lee,34.75611,-90.72222,253,Active,Permanent,USFS,08,OZARK-ST. FRANCIS NF,39:30:00,60,60,,West,Yes,CST,52.51
,86001,FLOX,1/1/2005,12/31/2022,8379931C,LOXAHATCHEE,FL,,26.48806,-80.42694,17,Active,Permanent,FWS,REGION 4,LOXAHATCHEE,32:50:00,60,60,,West,Yes,EST,52.48
,317801,NBFT,1/1/2005,12/31/2022,4071E710,BEAUFORT,NC,Beaufort,35.52081,-76.93183,55,Active,Permanent,S&PF,NORTH CAROLINA,DIV. OF FOREST RES.,13:10:00,60,60,,East,Yes,EST,52.47
,241519,MPOI,1/1/2005,12/31/2022,326ED528,POINT 6,MT,Missoula,47.04136,-113.98631,7897,Active,Permanent,USFS,01,LOLO NF,59:20:00,60,60,"Point 6 RAWS is located on a rocky point above Snow Bowl Ski Area. It is exposed to very extreme elements during the winter, and always gets rime build-up on the entire platform/all sensors and the mast.",West,Yes,MST,52.37
,448502,VFLW,5/24/2016,12/31/2022,3281D630,FLATWOODS,VA,Wise,36.89047,-82.45708,2308,Active,Permanent,USFS,08,G.WASH & JEFFERSON,50:25:00,60,60,"CLINCH RANGER DISTRICT OFFICE
RIDGE TOP
FIRE WX ZONE:  16",East,Yes,EST,52.36
,98201,GCML,1/1/2005,12/31/2022,31010506,CAMILLA,GA,Mitchell,31.21417,-84.23611,160,Active,Permanent,S&PF,GEORGIA,GEORGIA FORESTRY COM,4:40:00,60,60,,West,Yes,EST,52.21
,14801,AGTR,8/24/2016,12/31/2022,32B3B052,GUNTER,AL,Montgomery,32.41428,-86.24089,216,Active,Permanent,S&PF,ALABAMA,AL S&PF,25:30:00,60,60,,West,Yes,CST,52.17
,451702,WENU,1/1/2005,12/31/2022,3008D490,ENUMCLAW,WA,King,47.22028,-121.96389,756,Active,Permanent,S&PF,WASHINGTON,DEPT. OF NATURAL RES,8:50:00,60,60,"Site is located in maintained grassy field with unobstructed
view of the foothills of the Western Cascade.",West,Yes,PST,52.12
,42603,CBAL,1/1/2005,12/31/2022,32398322,BALD MTN LOC,CA,El Dorado,38.90417,-120.70522,4613,Active,Permanent,USFS,05,ELDORADO NF,36:10:00,60,60,RIDGE. Bald Mtn. Lookout.,West,Yes,PST,52.09
,157201,KPEA,5/1/2006,12/31/2022,3284C286,PEABODY,KY,Clay,37.13769,-83.57789,1465,Active,Permanent,USFS,08,DANIEL BOONE NF,1:40:00,60,60,"The station is appx 15 miles south from the old Cherry
Tree Knob site on the Redbird RD of Daniel Boone NF.
Co-located with the Peabody Repeater.",West,Yes,EST,52.07
,81302,FEDD,1/1/2005,12/31/2022,32876570,EDDY TOWER,FL,Baker,30.54194,-82.34333,131,Active,Permanent,USFS,08,NF'S IN FLORIDA,56:30:00,60,60,,East,Yes,EST,52.05
,31102,ACMP,12/11/2008,12/31/2022,FA6507F6,COMPTON,AR,,36.06738,-93.35609,2365,Active,Permanent,NPS,MIDWEST,BUFFALO NR,23:10:00,60,60,Ridge top South Slope.,West,Yes,CST,51.92
,384002,SWIT,1/1/2005,12/31/2022,333316B0,WITHERBEE,SC,Berkeley,33.16111,-79.82917,51,Active,Permanent,USFS,08,FRANCIS MARION&SUMTR,13:00:00,60,60,STATION IS LOCATED ON FLAT GROUND AT THE WITHERBEE R.D.,East,Yes,EST,51.87
,319701,NWHI,1/1/2005,12/31/2022,3270265A,WHITEVILLE,NC,Columbus,34.33591,-78.72852,100,Active,Permanent,S&PF,NORTH CAROLINA,DIV. OF FOREST RES.,18:20:00,60,60,Station is located in a grassy flat at the District Office.,West,Yes,EST,51.86
,411102,TLND,1/1/2005,12/31/2022,8841606A,LINDEN,TX,Cass,33.00500,-94.35778,500,Active,Permanent,S&PF,TEXAS,TEXAS FOREST SERVICE,5:40:00,60,60,Ecoregion - Level 1: Eastern Temperate Forests; Level 2: Southeastern USA Plains; Level 3: South Central Plains (35); Level 4: Tertiary Uplands (35a); Site is located near Linden TX.,West,Yes,CST,51.78
,360271,PGAR,7/24/2007,12/31/2022,D68034B6,GARDEN HOLLOW,PA,Centre,41.02556,-77.16722,1644,Active,Permanent,S&PF,PENNSYLVANIA,DCNR,8:37:00,60,60,Forest District 07.,East,Yes,EST,51.77
,403101,TCHU,1/1/2005,12/31/2022,0260279A,CHUCK SWAN SF,TN,Union,36.37139,-83.89278,1657,Active,Permanent,S&PF,TENNESSEE,DIVISION OF FORESTRY,5:30:00,60,60,,West,Yes,EST,51.75
,85301,FAVO,11/26/2013,12/31/2022,325B1186,AVON PARK AF RANGE 1,FL,Highlands,27.59533,-81.21303,-17,Active,Permanent,DOD,USAF,AVON PARK,22:00:00,60,60,,West,Yes,EST,51.74
,154401,KKOO,1/1/2005,12/31/2022,3284A760,KOOMER,KY,Wolfe,37.78121,-83.63250,1300,Active,Permanent,USFS,08,DANIEL BOONE NF,18:00:00,60,60,,East,Yes,EST,51.74
,99801,GOKE,1/1/2005,12/31/2022,32931144,OKE-EAST,GA,Charlton,30.74028,-82.12778,69,Active,Permanent,FWS,REGION 4,OKEFENOKEE NWR,47:40:00,60,60,TM4000 (912)496-2754,East,Yes,EST,51.72
,403801,TDYE,2/9/2007,12/31/2022,0260D71E,DYERSBURG,TN,Dyer,35.99000,-89.40583,208,Active,Permanent,S&PF,TENNESSEE,DIVISION OF FORESTRY,7:20:00,60,60,Dyersburg Airport,West,Yes,CST,51.72
,492012,HWVA,1/1/2005,12/31/2022,487005DA,WAIANAE VALLEY,HI,Honolulu,21.48072,-158.15488,866,Active,Permanent,S&PF,HAWAII,DEPT OF LAND AND NR,37:12:00,60,60,"STATION SITS JUST EAST OF THE TOWN OF WAIANAE UP IN THE
VALLEY ON THE NORTH MID-SLOPE, JUST OFF ACCESS ROAD TO THE
EAST.  TWO GATES, NEED KEY, CONTACT Ryan Peralta 808-292-5645
POC IS Michael Walker (808)348-5834  RAWS IN ENLOSURE, GATE LOCK
COMBO IS 3958  HIGH DATA RATE, 300 BAUD, 10 SEC. WINDOW",West,Yes,HST,51.72
,490306,HKAH,1/1/2005,12/31/2022,325A861E,KAHUKU TRAINING AREA,HI,Honolulu,21.67917,-157.98944,596,Active,Permanent,DOD,USA,SCHOFIELD BARRACKS,59:00:00,60,60,"SITE IS LOCATED AT KAHUKU TRAINING RANGE (ARMY). SITS ON
HIGHEST POINT WITH DROP-OFFS ON ALL SIDES BUT EAST.
TURTLE BAY HILTON VISIBLE 2 MILES N.W.
GUARD SHACK VISIBLE 1/4 MILE EAST. NEED TO
REMOVE MAST SUPPORT CABLE FROM TOWER TO ACCESS WIND SENSOR.",West,Yes,HST,51.64
,413509,TLUF,1/1/2005,12/31/2022,88423718,LUFKIN,TX,Angelina,31.31222,-94.82583,158,Active,Permanent,S&PF,TEXAS,TEXAS FOREST SERVICE,3:20:00,60,60,Ecoregion - Level 1: Eastern Temperate Forests; Level 2: Southeastern USA Plains; Level 3: South Central Plains (35); Level 4: Southern Tertiary Uplands (35e); Site is located near Lufkin TX.,West,Yes,CST,51.62
,411901,TCAD,1/1/2005,12/31/2022,83740518,CADDO LAKE,TX,Harrison,32.65833,-94.11639,200,Active,Permanent,FWS,REGION 2,CADDO LAKE NWR,11:00:00,60,60,"The RAWS is located in a small clearing surrounded by Pine
forest. Within the clearing exists grasses up to 3 feet in
height AGL. There are few shrubs, up to 5 feet in height
AGL. Pine trees surround the cleared area. There is a slight
downhill slope from the entrance road to the RAWS.",West,Yes,CST,51.61
,412801,TLUM,12/14/2011,12/31/2022,32B082C6,LUMBERJACK,TX,Nacogdoches,31.75917,-94.65806,412,Active,Permanent,S&PF,TEXAS,TEXAS FOREST SERVICE,46:50:00,60,60,Ecoregion - Level 1: Eastern Temperate Forests; Level 2: Southeastern USA Plains; Level 3: South Central Plains (35); Level 4: Tertiary Uplands (35a); Site is located near Nacogdoches TX.,West,Yes,CST,51.56
,314201,NGRF,1/1/2005,12/31/2022,3334D19A,GRANDFATHER,NC,McDowell,35.76750,-82.04000,1720,Active,Permanent,USFS,08,NF'S IN N. CAROLINA,49:05:00,60,60,,East,Yes,EST,51.49
,449801,VGDR,1/1/2005,12/31/2022,837216A0,GDR,VA,,36.61293,-76.55425,38,Active,Permanent,FWS,REGION 5,GREAT DISMAL NWR,54:50:00,60,60,Trileg upgrade 2018,East,Yes,EST,51.47
,410501,TTEX,1/1/2005,12/31/2022,884071E6,TEXARKANA,TX,Bowie,33.37389,-94.04556,200,Active,Permanent,S&PF,TEXAS,TEXAS FOREST SERVICE,4:40:00,60,60,Ecoregion - Level 1: Eastern Temperate Forests; Level 2: Southeastern USA Plains; Level 3: South Central Plains (35); Level 4: Tertiary Uplands (35a); Site is located near Texarkana Tx.,West,Yes,CST,51.44
,319302,NTUR,1/1/2005,12/31/2022,4071B76C,TURNBULL CREEK,NC,Bladen,34.68306,-78.58167,100,Active,Permanent,S&PF,NORTH CAROLINA,DIV. OF FOREST RES.,18:50:00,60,60,,West,Yes,EST,51.39
,40203,CBLQ,1/1/2005,12/31/2022,3272B6CC,BLUE RIDGE (KNF),CA,Siskiyou,41.26909,-123.18897,5859,Active,Permanent,USFS,05,KLAMATH NF,51:50:00,60,60,,West,Yes,PST,51.38
last obs 2024-08-01T22:00-10:00,490302,HMRG,1/1/2005,12/31/2022,3266C2F8,MAKUA RIDGE,HI,Honolulu,21.54278,-158.19889,1750,Active,Permanent,DOD,USA,SCHOFIELD BARRACKS,58:40:00,60,60,"SITE SITS NE. OF MAKUA TRAINING RANGE. 3 MILES ON TOP OF
RIDGE THAT RUNS E-W. SITE SITS IN SMALL CLEARING WITH A
DROP OFF 20' TO THE SOUTH AND 20' TO THE WEST. LARGE TREES
LOCATED JUST NORTH OF STATION ALONG RIDGE TOP.",West,Yes,HST,51.35
,84802,FLKW,1/1/2005,12/31/2022,837891E6,LAKE WALES,FL,,27.43639,-81.38972,141,Active,Permanent,FWS,REGION 4,LAKE WALES NWR,46:00:00,60,60,,West,Yes,EST,51.32
,495006,HMOL,1/1/2005,12/31/2022,AAB6D15A,MOLOAA DAIRY,HI,Kauai,22.18333,-159.33750,338,Active,Permanent,S&PF,HAWAII,DEPT OF LAND AND NR,45:50:00,60,60,,West,Yes,HST,51.21
,313001,NGRC,1/1/2005,12/31/2022,32859000,GREENS CROSS,NC,Bertie,36.01766,-76.89126,42,Active,Permanent,S&PF,NORTH CAROLINA,DIV. OF FOREST RES.,17:00:00,60,60,"located at NCFS Headquarters in Bertie County, NC",West,Yes,EST,51.17
,128905,ITPL,1/1/2005,12/31/2022,328530F8,TIPSAW LAKE,IN,Perry,38.13583,-86.64111,718,Active,Permanent,USFS,09,HOOSIER NF,11:50:00,60,60,,West,Yes,EST,51.16
,270301,NWMT,1/1/2005,12/31/2022,3287267A,WHITE MTN NF,NH,Carroll,43.98047,-71.13264,460,Active,Permanent,USFS,09,WHITE MOUNTAIN NF,13:30:00,60,60,"WEATHER STATION IS LOCATED IN A GRASSY FIELD BEHIND THE SACO
RANGER STATION.",East,Yes,EST,51.11
,415109,TCON,1/1/2005,12/31/2022,8842246E,CONROE,TX,Montgomery,30.23620,-95.48305,123,Active,Permanent,S&PF,TEXAS,TEXAS FOREST SERVICE,3:10:00,60,60,Ecoregion- Level 1: Eastern Temperate Forests; Level 2: Southeastern USA Plains; Level 3: South Central Plains (35); Level 4: Southern Tertiary Uplands (35e); Located in WG Jones State Forest,West,Yes,CST,51.04
,43212,CBML,8/24/2016,12/31/2022,32B5385A,BLUE MTN LOOKOUT,CA,Calaveras,38.34233,-120.36469,6043,Active,Permanent,S&PF,CALIFORNIA,CDF,33:40:00,60,60,,West,Yes,PST,51.03
,151191,KGRE,1/1/2005,12/31/2022,403046CE,GREENVILLE,KY,,37.27340,-87.20219,552,Active,Permanent,S&PF,KENTUCKY,DIVISION OF FORESTRY,55:50:00,60,60,,East,Yes,CST,50.98
,42615,CSTF,7/8/2010,12/31/2022,326EA3B8,STEELY FORK,CA,El Dorado,38.62609,-120.52785,4010,Active,Permanent,USFS,05,ELDORADO NF,17:40:00,60,60,Relocated from the Grizzly Flat RAWS site on 7/8/2010.  This site is approximately 2 miles ENE of the former site and 330 feet higher.,West,Yes,PST,50.93
,98801,GSTE,1/1/2005,12/31/2022,3100F778,STERLING,GA,Glynn,31.25694,-81.61056,13,Active,Permanent,S&PF,GEORGIA,GEORGIA FORESTRY COM,4:30:00,60,60,,West,Yes,EST,50.92
,40517,CSCN,1/1/2005,12/31/2022,32421044,SCORPION,CA,Trinity,41.10948,-122.69747,3365,Active,Permanent,USFS,05,SHASTA TRINITY NF,31:50:00,60,60,"MIDSLOPE SITE,",West,Yes,PST,50.87
,360751,PIND,10/5/2017,12/31/2022,32A0FD1A,INDIANTOWN RUN,PA,Lebanon,40.45900,-76.61700,710,Active,Permanent,S&PF,PENNSYLVANIA,DCNR,13:40:00,60,60,,West,Yes,EST,50.86
,310301,NRAV,12/31/2005,12/31/2022,3269E286,RAVEN KNOB (SURRY CTY),NC,Surry,36.47556,-80.85694,1300,Active,Permanent,S&PF,NORTH CAROLINA,DIV. OF FOREST RES.,17:10:00,60,60,,West,Yes,EST,50.83
,191204,MCPE,12/1/2016,12/31/2022,ADB00D40,CAMP EDWARDS RAWS,MA,Barnstable,41.70719,-70.56414,281,Active,Permanent,DOD,USA,CAMP EDWARDS,7:20:00,60,60,Station is within maintained yard of Range Control facility surrounded by pine-oak woodland. Location is just below top of Pine Hill (highest point on Cape Cod) on the glacial moraine.,West,Yes,EST,50.77
,384101,SACE,3/29/2010,12/31/2022,328C25D2,ACE BASIN,SC,Charleston,32.65833,-80.39889,9,Active,Permanent,FWS,REGION 4,,0:00:00,60,60,,East,Yes,EST,50.77
,99701,GWAY,1/1/2005,12/31/2022,31011670,WAYCROSS,GA,Ware,31.24667,-82.40139,136,Active,Permanent,S&PF,GEORGIA,GEORGIA FORESTRY COM,4:50:00,60,60,,West,Yes,EST,50.75
,280311,JRIN,1/1/2005,12/31/2022,FF10245C,RINGWOOD,NJ,Passaic,41.11806,-74.24028,567,Active,Permanent,S&PF,NEW JERSEY,FOREST FIRE SERVICE,10:20:00,60,60,,West,Yes,EST,50.74
,40519,CUND,1/1/2005,12/31/2022,32748398,UNDERWOOD,CA,Trinity,40.72149,-123.49629,2625,Active,Permanent,USFS,05,SIX RIVERS NF,24:30:00,60,60,"Middle third of the slope. River is at 960' and the top is
4,615'. Station is located in the middle of a plantation.",West,Yes,PST,50.7
,92702,GATH,1/1/2005,12/31/2022,31003266,WATKINSVILLE,GA,Clarke,33.88889,-83.41833,785,Active,Permanent,S&PF,GEORGIA,GEORGIA FORESTRY COM,2:30:00,60,60,,West,Yes,EST,50.66
,119501,IDIX,1/1/2005,12/31/2022,3282B4D8,DIXON SPRINGS,IL,Pope,37.43667,-88.66722,540,Active,Permanent,USFS,09,SHAWNEE NF,8:00:00,60,60,"Station is located at the Dixon Springs Agricultural Center-
University of Illinois.",West,Yes,CST,50.62
,311503,NELI,1/1/2005,12/31/2022,40725390,ELIZABETH CITY,NC,Pasquotank,36.34686,-76.27808,15,Active,Permanent,S&PF,NORTH CAROLINA,DIV. OF FOREST RES.,13:50:00,60,60,,West,Yes,EST,50.62
,239102,MDON,1/1/2005,12/31/2022,3271F2C8,DONIPHAN,MO,Ripley,36.64617,-90.78022,635,Active,Permanent,USFS,09,MARK TWAIN NF,53:20:00,60,60,Field site located by the district office.,West,Yes,CST,50.59
,41408,CLYO,1/1/2005,12/31/2022,32781766,LYONS VALLEY,CA,Mendocino,39.12583,-123.07333,3355,Active,Permanent,BLM,R10 CA Great Basin,UKIAH,1:50:00,60,60,"STATION LOCATED .35 MILES SE OF COW MTN. RADIO TX SITE.
SURROUNDING AREA IS MTNS AND VALLEYS WITH MTN SHRUB
(CHAPARRAL) VARIATIES.  CLEAR LAKE IS LOCATED AT ESE (105)
ABOUT 10 MILES AWAY",West,Yes,PST,50.5
,313601,NTYL,1/1/2005,12/31/2022,40703382,TAYLORSVILLE (LENOIR),NC,Alexander,35.91167,-81.13750,1190,Active,Permanent,S&PF,NORTH CAROLINA,DIV. OF FOREST RES.,4:10:00,60,60,Behind Alexander County NCFS Office.,West,Yes,EST,50.45
,444002,VCRA,1/1/2005,12/31/2022,3289B770,CRAIG VALLEY,VA,Craig,37.55742,-80.17922,2702,Active,Permanent,USFS,08,G.WASH & JEFFERSON,32:25:00,60,60,"Potts Mountain site
FIRE WX ZONE:  13
NEW CASTLE RANGER DISTRICT OFFICE",East,Yes,EST,50.43
,495007,HPUL,3/6/2009,12/31/2022,487083CE,PUU LUA,HI,Kauai,22.08924,-159.67904,3274,Active,Permanent,S&PF,HAWAII,DEPT OF LAND AND NR,35:00:00,60,60,"Near Puu Lua Reservoir, near heavily forested area.",West,Yes,HST,50.42
,361031,PCWP,10/17/2019,12/31/2022,32B14BF0,CAMP WILLIAM PENN,PA,Pike,41.15208,-75.15108,1142,Active,Permanent,S&PF,PENNSYLVANIA,DCNR,50:50:00,60,60,one acre clearing,East,Yes,EST,50.4
,95501,GPLA,1/1/2005,12/31/2022,3100929E,AMERICUS/PLAINS,GA,Sumter,32.11056,-84.18417,456,Active,Permanent,S&PF,GEORGIA,GEORGIA FORESTRY COM,48:20:00,60,60,,East,Yes,EST,50.39
,180302,MCTM,12/31/2005,12/31/2022,FA648318,CATOCTIN MOUNTAIN,MD,,39.65139,-77.49333,1485,Active,Permanent,NPS,NATIONAL CAPITAL,CATOCTIN MTN PARK,12:40:00,60,60,,West,Yes,EST,50.38
,32801,APNS,1/1/2005,12/31/2022,0720468A,POINSETT,AR,Poinsett,35.56792,-90.71164,389,Active,Permanent,S&PF,ARKANSAS,ARKANSAS FORESTRY,10:40:00,60,60,Site is located in a field just north-east of Harrisburg behind the county landfill.,West,Yes,CST,50.37
,170131,MISL,1/1/2005,12/31/2022,FA670202,ISLE AU HAUT,ME,Knox,44.06667,-68.64167,0,Active,Permanent,NPS,NORTHEAST,ACADIA NP,38:00:00,60,60,,East,Yes,EST,50.37
,418301,TBRA,1/1/2005,12/31/2022,8370A0DA,BRAZORIA NWR,TX,Brazoria,29.14631,-95.30308,8,Active,Permanent,FWS,REGION 2,BRAZORIA NWR,28:50:00,60,60,"UP-LAND MEADOW PORTION OF BRAZORIA NWR. AUSTIN BAYOU LOCATED
1/2 TO WEST IN TREE LINE. LAND IS FLAT AS FOR AS THE EYE CAN
SEE. BACAHARIS, CHINEESEE TALLOW, HIGH TIDE BRUSH AND GULF
CORD GRASS ARE PRIMARY COVER. NO LEGAL IN TEXAS.",West,Yes,CST,50.37
,382901,SMAR,3/20/2014,12/31/2022,AAA26070,MARION 01,SC,Marion,34.18583,-79.33622,93,Active,Permanent,S&PF,SOUTH CAROLINA,FORESTRY COMMISSION,43:20:00,60,60,,East,Yes,EST,50.36
,451207,WCAR,1/1/2005,12/31/2022,3008A200,CASTLE ROCK,WA,Cowlitz,46.27139,-122.89194,213,Active,Permanent,S&PF,WASHINGTON,DEPT. OF NATURAL RES,9:10:00,60,60,Located at the DNR Pacific Cascade Region Office.,West,Yes,PST,50.32
,99902,GSTA,1/1/2005,12/31/2022,FA65A70E,STAFFORD,GA,,30.91722,-81.42944,25,Active,Permanent,NPS,SOUTHEAST,CUMBERLAND ISLAND NS,19:20:00,60,60,,East,Yes,EST,50.31
,353048,ONOB,6/8/2006,12/31/2022,327E54A2,NORTH BANK,OR,Douglas,43.35556,-123.19139,1913,Active,Permanent,BLM,R9 Columbia Pac NW,ROSEBURG,11:00:00,60,60,"STATION SITS ON TOP OF GRASSY KNOLL. MIXED CONIFER IN
ALL DIRECTIONS. STATION SURROUNDED BY DEEP VALLEYS
ON ALL SIDES. TOWN OF SUTHERLAND VISIBLE TO THE NORTH.",West,Yes,PST,50.3
,152001,KTRI,1/1/2005,12/31/2022,328492FA,TRIANGLE MTN,KY,Rowan,38.17708,-83.40647,1360,Active,Permanent,USFS,08,DANIEL BOONE NF,2:20:00,60,60,,West,Yes,EST,50.29
,317501,NFIN,1/1/2005,12/31/2022,40723676,FINCH'S STATION,NC,Wayne,35.42800,-78.02282,87,Active,Permanent,S&PF,NORTH CAROLINA,DIV. OF FOREST RES.,14:30:00,60,60,Mowed field.,West,Yes,EST,50.27
,280101,JBLU,12/11/2007,12/31/2022,3291C2D8,BLUE MOUNTAIN LAKES,NJ,Sussex,41.08889,-74.91278,1375,Active,Permanent,NPS,NORTHEAST,DELAWARE WATER GAP,14:50:00,60,60,"Station is transmitting to the Eastern satellite. Antenna
angle is 42 degrees and the azimuth is 180 degrees.",East,Yes,EST,50.23
,99803,GOKN,9/30/2015,12/31/2022,32B00A00,OKE-NW,GA,Charlton,30.97524,-82.39638,125,Active,Permanent,FWS,REGION 4,OKEFENOKEE NWR,10:00:00,60,60,,West,Yes,EST,50.22
,31404,ABLS,12/31/2005,12/31/2022,326183C6,BLANCHARD SPRINGS,AR,Stone,35.97444,-92.19417,1200,Active,Permanent,USFS,08,OZARK-ST. FRANCIS NF,17:10:00,60,60,,West,Yes,CST,50.19
,410401,TCLA,1/1/2005,12/31/2022,8840E484,CLARKSVILLE,TX,Red River,33.62685,-95.09054,399,Active,Permanent,S&PF,TEXAS,TEXAS FOREST SERVICE,7:30:00,60,60,Ecoregion - Level 1: Eastern Temperate Forests; Level 2: Southeastern USA Plains; Level 3: East Central Texas Plains (33); Level 4: Northern Prairie Outliners (33d); Site is located near Clarksville TX.,West,Yes,CST,50.15
,451917,WBCR,10/20/2009,12/31/2022,3261A52A,BUCK CREEK,WA,Skamania,46.05667,-121.53861,2690,Active,Permanent,USFS,06,GIFFORD PINCHOT NF,25:50:00,60,60,FIRE WX FORECAST ZONE: 635,West,Yes,PST,50.15
,300411,YLPL,1/1/2005,12/31/2022,6250900A,LAKE PLEASANT,NY,Hamilton,43.47016,-74.41307,1800,Active,Permanent,S&PF,NEW YORK,"DEC,FOREST PROT&FIRE",0:50:00,60,60,,West,Yes,EST,50.13
,500964,AGRN,1/1/2005,12/31/2022,324704F2,GRANITE,AK,Kenai Peninsula,60.72690,-149.28962,669,Active,Permanent,USFS,10,CHUGACH NF,55:50:00,60,60,"FIRE WX ZONE 31
VALLEY BOTTOM
TROUBLE HITTING GOES",West,Yes,AKST,50.1
,464601,WLOG,1/1/2005,12/31/2022,900000EC,LOGAN,WV,Logan,37.85500,-81.91444,1650,Active,Permanent,S&PF,WEST VIRGINIA,DOF,14:40:00,60,60,"Station is in a flat grassy area set some distance off the
paved parking area at Logan Airport.  It is well away from
obstructions or heat sources.",West,Yes,EST,50.1
,384601,SWAL,11/14/2013,12/31/2022,AAA1F21C,WALTERBORO,SC,Colleton,32.92378,-80.63067,99,Active,Permanent,S&PF,SOUTH CAROLINA,FORESTRY COMMISSION,7:10:00,60,60,,West,Yes,EST,50.07
,384201,SSAV,1/1/2005,12/31/2022,8376F068,SAVANNAH NWR,GA,,32.17166,-81.11996,7,Active,Permanent,FWS,REGION 4,SAVANNAH NWR,23:40:00,60,60,,West,Yes,EST,50.02
,33001,ABNV,1/1/2005,12/31/2022,3334B47C,BOONEVILLE,AR,Logan,35.14278,-93.89500,343,Active,Permanent,USFS,08,OUACHITA NF,2:40:00,60,60,"Station is located at the Cold Springs R.D. in the town of
Booneville, AR.; south side of Hwy 10, on the east side of
town behind the office. No problem accessing the site.
Ground is soft after a rain.",West,Yes,CST,49.99
,98401,GCOO,1/1/2005,12/31/2022,3100E40E,ADEL,GA,Cook,31.10972,-83.42694,232,Active,Permanent,S&PF,GEORGIA,GEORGIA FORESTRY COM,4:20:00,60,60,,West,Yes,EST,49.83
,171603,MRCA,1/1/2005,12/31/2022,83753278,RACHEL CARSON - FTS,ME,York,43.27903,-70.59003,50,Active,Permanent,FWS,REGION 5,RACHEL CARSON NWR,32:10:00,60,60,Old pasture that is reverting to shrubland.  Site is fenced and mowed periodically inside fence. Station is set on a tri leg,East,Yes,EST,49.81
,31502,AEVE,1/1/2005,12/31/2022,0720301A,HORSESHOE BEND,AR,Fulton,36.26850,-91.71678,540,Active,Permanent,S&PF,ARKANSAS,ARKANSAS FORESTRY,10:30:00,60,60,Site is located on leased property.,West,Yes,CST,49.76
,300312,YMVA,1/1/2005,12/31/2022,6250837C,MT VANHOEVENBERG,NY,Essex,44.20000,-73.90000,2000,Active,Permanent,S&PF,NEW YORK,"DEC,FOREST PROT&FIRE",1:00:00,60,60,,West,Yes,EST,49.71
,353036,OGAD,1/1/2005,12/31/2022,326116A4,GRANDAD,OR,Douglas,43.41583,-122.57722,2900,Active,Permanent,USFS,06,UMPQUA NF,47:40:00,60,60,"station sits on a bald knob.  area drops off to the North
and South.  Mtn. rises to the East.  Rolling mtn.'s all
around site area.
FIRE WX FORECAST ZONE: 617",West,Yes,PST,49.7
,41909,CHOM,6/23/2010,12/31/2022,91C0165C,HOMEWOOD,CA,Placer,39.08350,-120.17115,7121,Active,Permanent,S&PF,CALIFORNIA,CDF,19:20:00,60,60,,West,Yes,PST,49.69
,119701,IBNR,1/1/2005,12/31/2022,3282D13E,BEAN RIDGE,IL,Alexander,37.24861,-89.37861,700,Active,Permanent,USFS,09,SHAWNEE NF,57:50:00,60,60,Station is located in a clearing on Bean Ridge.,East,Yes,CST,49.64
Multiple transmits per hour,97903,GRIC,3/2/2019,12/31/2022,F8E0196E,RICHMOND HILL,GA,Bryan,31.97750833,-81.38221944,20,Active,Permanent,DOD,USA,FORT STEWART,"04:30, 34:30",30,30,,West,Yes,EST,49.63
,96801,GMID,1/1/2005,12/31/2022,3100C2E2,MIDWAY,GA,Liberty,31.78417,-81.43861,15,Active,Permanent,S&PF,GEORGIA,GEORGIA FORESTRY COM,4:00:00,60,60,,West,Yes,EST,49.62
,156001,KJAC,1/1/2005,12/31/2022,4030305E,JACKSON CO AP,KY,,37.59194,-83.31475,1388,Active,Permanent,S&PF,KENTUCKY,DIVISION OF FORESTRY,56:20:00,60,60,,East,Yes,EST,49.59
,192101,MBLH,12/4/2015,12/31/2022,32B277B6,BLUE HILLS,MA,Norfolk,42.20766,-71.11051,110,Active,Permanent,S&PF,MASSACHUSETTS,MA FFC,50:45:00,60,60,,East,Yes,EST,49.58
,370450,RNIN,1/1/2005,12/31/2022,83779774,NINIGRET,RI,Washington,41.37928,-71.58219,39,Active,Permanent,FWS,REGION 5,NINIGRET NWR,32:20:00,60,60,"Open grass/shrub within 1/2 mi of Atlantic ocean.  Located
near the maintenance shop at Trustom Pond NWR. New trileg installed Oct 2019, along with RM wind sensor and New data logger  GV",East,Yes,EST,49.49
,353043,OMTY,1/1/2005,12/31/2022,324BC070,MT. YONCALLA,OR,Douglas,43.63831,-123.32694,1822,Active,Permanent,BLM,R9 Columbia Pac NW,ROSEBURG,58:04:00,60,60,"STATION SITS ON GRASSY BENCH/RIDGETOP.  BENCHLINE RUNS
EAST TO WEST AND DROPS OFF TO THE SOUTH OF STATION AT 10 YDS
DROP OFF IS APPROX. 1800 FT., INTO EAST / WEST VALLEY.
THIS STATION SITS ON ONE OF THE HIGHEST MOUNTAIN PEAKS
VISIBLE IN THE SURROUNDING AREA. COMM. ANTENNA'S SITE.",West,Yes,PST,49.47
,101049,IROU,1/1/2005,12/31/2022,3239E6C4,ROUNDTOP,ID,Idaho,46.53361,-114.59167,6560,Active,Permanent,USFS,01,NEZ PERCE-CLEARWATER,16:40:00,60,60,"OPEN HARSH SITE OVERLOOKING SELWAY-BITTERROOT WILDERNESS.
SITE IS A FORMER LOOKOUT LOCATION.

TOWER NEW 1994",West,Yes,PST,49.44
,413302,TRAT,1/1/2005,12/31/2022,3288A6FC,RATCLIFF,TX,Houston,31.39500,-95.13889,434,Active,Permanent,USFS,08,NF'S IN TEXAS,2:40:00,60,60,"Behind the Davy Crockett Work Center to north on flat ground
by the old fire watch tower.",West,Yes,CST,49.4
Multiple transmits per hour,97901,GLAW,3/2/2019,12/31/2022,F8E00A18,LAWSON,GA,Liberty,31.90433889,-81.59468056,91,Active,Permanent,DOD,USA,FORT STEWART,"04:10, 34:10",30,30,,West,Yes,EST,49.34
,127901,ITWR,12/14/2011,12/31/2022,AAC1763A,THE TOWER RAWS,IN,Washington,38.69148,-86.00268,927,Active,Permanent,USFS,09,HOOSIER NF,33:10:00,60,60,,East,Yes,EST,49.33
,170850,MMOO,1/1/2005,12/31/2022,83738138,MOOSEHORN,ME,Washington,45.11433,-67.28060,210,Active,Permanent,FWS,REGION 5,MOOSEHORN NWR,19:40:00,60,60,"Open field near headquarters building, but between the residence quarters. Has Tri Leg Set up completed in 2007",East,Yes,EST,49.13
,383401,SSAT,1/1/2005,12/31/2022,8379E58C,SANTEE NWR,SC,,33.55750,-80.44139,78,Active,Permanent,FWS,REGION 4,SANTEE NWR,44:20:00,60,60,,West,Yes,EST,48.99
,241512,MPON,7/14/2013,12/31/2022,AA118544,PONY CREEK,MT,Missoula,47.62583,-113.69222,5510,Active,Permanent,USFS,01,FLATHEAD NF,38:50:00,60,60,,West,Yes,MST,48.96
,360432,PMAN,12/5/2013,12/31/2022,3333E634,MANADA GAP,PA,Dauphin,40.41100,-76.71100,625,Active,Permanent,S&PF,PENNSYLVANIA,DCNR,18:10:00,60,60,,West,Yes,EST,48.95
,280231,JMID,1/1/2005,12/31/2022,FF10372A,NEW MIDDLESEX COUNTY,NJ,Middlesex,40.40722,-74.49417,94,Active,Permanent,S&PF,NEW JERSEY,FOREST FIRE SERVICE,10:30:00,60,60,,West,Yes,EST,48.89
,280291,JJAC,1/1/2005,12/31/2022,FF1041BA,JACKSON,NJ,Ocean,40.09861,-74.31611,105,Active,Permanent,S&PF,NEW JERSEY,FOREST FIRE SERVICE,51:05:00,60,60,,East,Yes,EST,48.89
Multiple transmits per hour,97802,GTAY,3/2/2019,12/31/2022,F8E02226,TAYLOR'S CREEK,GA,Long,31.94338889,-81.75440833,96,Active,Permanent,DOD,USA,FORT STEWART,"04:40, 34:40",30,30,,West,Yes,EST,48.83
,361802,PLOC,1/1/2005,12/31/2022,FA63A7C0,LOCH LOMOND,PA,Pike,41.20389,-74.88972,886,Active,Permanent,NPS,NORTHEAST,DELAWARE WATER GAP,42:10:00,60,60,,East,Yes,EST,48.83
,414102,THUN,1/1/2005,12/31/2022,88414686,HUNTSVILLE,TX,Walker,30.73556,-95.63611,230,Active,Permanent,S&PF,TEXAS,TEXAS FOREST SERVICE,6:00:00,60,60,Ecoregion- Level 1: Eastern Temperate Forests; Level 2: Southeastern USA Plains; Level 3: South Central Plains (35); Level 4: Southern Tertiary Uplands (35e); Site is located near Huntsville TX.,West,Yes,CST,48.81
,239204,MPI2,5/6/2014,12/31/2022,32567706,PIEDMONT,MO,Wayne,37.24050,-90.27361,840,Active,Permanent,S&PF,MISSOURI,DEPT OF CONSERVATION,30:50:00,60,60,,West,Yes,CST,48.8
,412202,THEN,1/1/2005,12/31/2022,88413016,HENDERSON,TX,Rusk,32.13669,-94.84736,353,Active,Permanent,S&PF,TEXAS,TEXAS FOREST SERVICE,6:10:00,60,60,Ecoregion - Level 1: Eastern Temperate Forests; Level 2: Southeastern USA Plains; Level 3: South Central Plains (35); Level 4: Tertiary Uplands (35a); Site is located near Henderson TX.,West,Yes,CST,48.75
,125701,IHAR,1/1/2005,12/31/2022,3284D1F0,HARDIN RIDGE,IN,Monroe,39.01333,-86.43639,750,Active,Permanent,USFS,09,HOOSIER NF,9:30:00,60,60,,West,Yes,EST,48.73
,95701,GBYR,1/1/2005,12/31/2022,310123EA,BYROMVILLE,GA,Dooly,32.16806,-83.97472,322,Active,Permanent,S&PF,GEORGIA,GEORGIA FORESTRY COM,5:00:00,60,60,,West,Yes,EST,48.7
,361002,PALL,1/1/2005,12/31/2022,328982EA,ALLEGHENY,PA,Forest,41.54339,-79.12672,1766,Active,Permanent,USFS,09,ALLEGHENY NF,22:20:00,60,60,open grass area,East,Yes,EST,48.62
,383201,SORA,11/20/2018,12/31/2022,32B73DAE,ORANGEBURG,SC,Orangeburg,33.54586,-80.84114,321,Active,Permanent,S&PF,SOUTH CAROLINA,FORESTRY COMMISSION,16:50:00,60,60,,West,Yes,EST,48.6
,30101,ATRI,10/25/2018,12/31/2022,32A179F4,TRIMBLE MTN,AR,Benton,36.46983,-93.92363,1585,Active,Permanent,NPS,MIDWEST,BUFFALO NR,41:10:00,60,60,"Grassy site near the ridge top, few trees nearby",West,Yes,CST,48.51
,93502,GDYA,7/2/2013,12/31/2022,32D3B260,DYAR PASTURE,GA,Greene,33.64727,-83.29462,481,Active,Permanent,USFS,08,CHATTAHOOCHEE&OCONEE,19:20:00,60,60,,East,Yes,EST,48.5
Multiple transmits per hour,97902,GPEM,3/2/2019,12/31/2022,F8E017BC,PEMBROKE,GA,Bryan,32.10191944,-81.62630833,71,Active,Permanent,DOD,USA,FORT STEWART,"04:20, 34:20",30,30,,West,Yes,EST,48.47
,239004,MBSP,1/1/2005,12/31/2022,FA64B682,BIG SPRING,MO,Carter,36.97569,-90.99808,653,Active,Permanent,NPS,MIDWEST,OZARK N.SCENIC RIVER,22:30:00,60,60,,West,Yes,CST,48.44
,238802,MMVW,7/27/2015,12/31/2022,AAB64438,MOUNTAIN VIEW,MO,Howell,36.99125,-91.71017,1182,Active,Permanent,S&PF,MISSOURI,DEPT OF CONSERVATION,45:10:00,60,60,,West,Yes,CST,48.41
,42312,CMPK,1/1/2005,12/31/2022,CA28D77A,MIDDLE PEAK,CA,Marin,37.92778,-122.58722,2339,Active,Permanent,S&PF,CALIFORNIA,MARIN COUNTY,36:00:00,60,60,,West,Yes,PST,48.38
,41810,CTDN,8/23/2016,12/31/2022,32B52B2C,TAHOE DONNER,CA,Placer,39.33819,-120.27339,7399,Active,Permanent,S&PF,CALIFORNIA,CDF,33:20:00,60,60,,West,Yes,PST,48.34
,319201,NLUM,11/4/2013,12/31/2022,AAB0A704,LUMBERTON,NC,Robeson,34.59508,-79.08494,120,Active,Permanent,S&PF,NORTH CAROLINA,DIV. OF FOREST RES.,14:40:00,60,60,"Station is located in the Coastal Plains within Southeastern Agricultural Center, on Highway 74 Alt. West Bound, NC Dept. of Agriculture property, Lumberton, NC.",West,Yes,EST,48.32
,450117,WCOU,1/1/2005,12/31/2022,324620E4,COUGAR MOUNTAIN,WA,Clallam,47.93886,-123.06919,2400,Active,Permanent,USFS,06,OLYMPIC NF,12:30:00,60,60,FIRE WX ZONE: 652,West,Yes,PST,48.31
,280051,JCOY,1/1/2005,12/31/2022,FF1002B0,COYLE FIELD,NJ,Burlington,39.81250,-74.42500,180,Active,Permanent,S&PF,NEW JERSEY,FOREST FIRE SERVICE,10:00:00,60,60,,West,Yes,EST,48.29
,411401,TGIL,1/1/2005,12/31/2022,88400776,GILMER,TX,Upshur,32.70111,-94.94472,295,Active,Permanent,S&PF,TEXAS,TEXAS FOREST SERVICE,6:40:00,60,60,Ecoregion - Level 1: Eastern Temperate Forests; Level 2: Southeastern USA Plains; Level 3: South Central Plains (35); Level 4: Tertiary Uplands (35a); Site is located near Gilmer TX.,West,Yes,CST,48.28
,463802,VBEE,1/1/2005,12/31/2022,90005090,BEE MOUNTAIN,WV,Kanawha,38.20028,-81.62000,1353,Active,Permanent,S&PF,WEST VIRGINIA,DOF,17:10:00,60,60,,West,Yes,EST,48.27
,127301,IBIO,1/1/2005,12/31/2022,8375E410,BIG OAKS,IN,Ripley,38.92528,-85.36250,900,Active,Permanent,FWS,REGION 3,BIG OAKS NWR,47:50:00,60,60,,West,Yes,EST,48.23
,318202,NRCK,1/1/2005,12/31/2022,3292E33A,ROCKINGHAM,NC,Richmond,34.96027,-79.68977,400,Active,Permanent,S&PF,NORTH CAROLINA,DIV. OF FOREST RES.,45:10:00,60,60,Station is located at the District office on a grassed sand ridge. The wind sensor is located 80 ft. up a radio tower that is approximately 300 ft. from base of station.,West,Yes,EST,48.17
,446801,VJAM,1/1/2005,12/31/2022,8377A2EE,JAMES RIVER,VA,,37.25944,-77.14056,50,Active,Permanent,FWS,REGION 5,JAMES RIVER NWR,51:40:00,60,60,Trileg upgrade 2018,East,Yes,EST,48.17
